id,name,description,latitude,longitude,event_date,created_at,updated_at,news_link,glide_number,event_label,aoi_size,active_start_date,active_end_date,firstwatch_link,icon_id,available_in_r3,available_in_commercial
423,Civil Unrest in Egypt,"The U.S. embassy in Cairo closed to the public Tuesday amid civil unrest across Egypt. Some 51 people have died in the violence since Friday, and at least 128 people were injured in overnight clashes that continued into Tuesday morning.",30.065,31.267,2013-01-30 16:05:00,2013-01-30 16:23:14.699751,2013-01-30 16:23:14.699751,http://www.upi.com/Top_News/World-News/2013/01/29/Egyptians-defy-Morsi-curfew-death-toll-59/UPI-37741359444600/,"",Yellow,16,2013-01-30 16:05:00,2013-02-09 16:05:00,"",19,f,t
3,Sudan Referendum,Political,4.8495,31.5822,2010-12-24 12:00:00,2011-05-24 12:00:00,2011-06-07 19:54:42.903765,,,,,,,,1,f,t
4,Mt Carmel Fire Israel,Fire,32.747,35.0364,2010-12-02 12:00:00,2011-05-24 12:00:00,2011-06-07 19:54:55.981925,,,,,,,,1,f,t
5,Venezuela Flooding,Flood,10.4819,-66.853,2010-12-01 12:00:00,2011-05-24 12:00:00,2011-06-07 19:55:13.381357,,,,,,,,1,f,t
6,North Korea Tensions,Political,37.6613,125.701,2010-11-26 12:00:00,2011-05-24 12:00:00,2011-06-07 19:55:30.489885,,,,,,,,1,f,t
7,Myanmar Election Violence,Political,16.6905,98.516,2010-11-08 12:00:00,2011-05-24 12:00:00,2011-06-07 19:55:45.816007,,,,,,,,1,f,t
8,Hurricane Tomas,Hurricane,18.561,-72.335,2010-11-05 12:00:00,2011-05-24 12:00:00,2011-06-07 19:56:00.172343,,,,,,,,1,f,t
9,Mt. Merapi,Volcano,-7.5416,110.4442,2010-10-26 12:00:00,2011-05-24 12:00:00,2011-06-07 19:56:14.935181,,,,,,,,1,f,t
11,Cyclone Giri,Cyclone,19.707,93.724,2010-10-26 12:00:00,2011-05-24 12:00:00,2011-06-07 19:56:37.754431,,,,,,,,1,f,t
12,Cotonou Benin - flooding,Flood,6.392,2.4295,2010-10-26 12:00:00,2011-05-24 12:00:00,2011-06-07 19:56:51.617074,,,,,,,,1,f,t
10,Sumatra Tsunami,Tsunami,-0.9935,100.381,2010-10-26 12:00:00,2011-05-24 12:00:00,2011-06-07 19:57:06.060459,,,,,,,,1,f,t
13,Hungary Toxic Sludge,Environmental,47.0891,17.4953,2010-10-05 12:00:00,2011-05-24 12:00:00,2011-06-07 19:57:34.527426,,,,,,,,1,f,t
14,Mexico Landslide,Landslide,17.0994,-96.0597,2010-09-28 12:00:00,2011-05-24 12:00:00,2011-06-07 19:59:30.949581,,,,,,,,1,f,t
15,Minnesota Flooding,Flood,44.3107,-93.962,2010-09-27 12:00:00,2011-05-24 12:00:00,2011-06-07 20:00:20.50793,,,,,,,,1,f,t
16,Wisconsin Flooding,Flood,43.536,-89.457,2010-09-27 12:00:00,2011-05-24 12:00:00,2011-06-07 20:00:37.038493,,,,,,,,1,f,t
17,Bihar India Flooding,Flood,26.372,84.631,2010-09-20 12:00:00,2011-05-24 12:00:00,2011-06-07 20:00:50.662596,,,,,,,,1,f,t
18,Machine Gun Fire,Fire,40.4498,-112.0536,2010-09-20 12:00:00,2011-05-24 12:00:00,2011-06-07 20:01:02.980468,,,,,,,,1,f,t
19,Hurricane Karl,Hurricane,19.1259,-96.1511,2010-09-17 12:00:00,2011-05-24 12:00:00,2011-06-07 20:01:23.829833,,,,,,,,1,f,t
20,Canyon Fire,Fire,35.5601,-118.573,2010-09-16 12:00:00,2011-05-24 12:00:00,2011-06-07 20:01:37.767002,,,,,,,,1,f,t
21,Nigeria Flooding,Flood,13.4496,5.651,2010-09-14 12:00:00,2011-05-24 12:00:00,2011-06-07 20:01:53.748902,,,,,,,,1,f,t
22,Reservoir Road Fire,Fire,40.378,-105.264,2010-09-13 12:00:00,2011-05-24 12:00:00,2011-06-07 20:02:07.962758,,,,,,,,1,f,t
23,San Bruno Explosion,Explosion,37.623,-122.4414,2010-09-10 12:00:00,2011-05-24 12:00:00,2011-06-07 20:02:22.698843,,,,,,,,1,f,t
24,Four Mile Fire,Fire,40.0537,-105.4133,2010-09-07 12:00:00,2011-05-24 12:00:00,2011-06-07 20:02:39.735971,,,,,,,,1,f,t
25,New Zealand Earthquake,Earthquake,-43.531,172.635,2010-09-07 12:00:00,2011-05-24 12:00:00,2011-06-07 20:02:53.025201,,,,,,,,1,f,t
26,California Post Fire,Fire,34.848,-118.877,2010-08-25 12:00:00,2011-05-24 12:00:00,2011-06-07 20:03:09.163821,,,,,,,,1,f,t
27,Sichuan China Debris Flow,Landslide,31.0616,103.4854,2010-08-16 12:00:00,2011-05-24 12:00:00,2011-06-07 20:03:22.306762,,,,,,,,1,f,t
28,Iowa Flooding,Flood,41.5332,-93.475,2010-08-12 12:00:00,2011-05-24 12:00:00,2011-06-07 20:03:34.125113,,,,,,,,1,f,t
29,China Landslide,Landslide,33.787,104.371,2010-08-09 12:00:00,2011-05-24 12:00:00,2011-06-07 20:03:45.705209,,,,,,,,1,f,t
30,India Flooding,Flood,34.1333,77.507,2010-08-09 12:00:00,2011-05-24 12:00:00,2011-06-07 20:04:00.469708,,,,,,,,1,f,t
31,Czech Flooding,Flood,50.8807,14.5199,2010-08-09 12:00:00,2011-05-24 12:00:00,2011-06-07 20:04:13.270246,,,,,,,,1,f,t
32,Burkina Faso Flooding,Flood,12.973,-0.1405,2010-08-02 12:00:00,2011-05-24 12:00:00,2011-06-07 20:04:31.082213,,,,,,,,1,f,t
33,Pakistan Flooding,Flood,28.0915,69.1212,2010-07-30 12:00:00,2011-05-24 12:00:00,2011-06-07 20:04:43.550906,,,,,,,,1,f,t
34,California Fires,Fire,35.806,-118.411,2010-07-28 12:00:00,2011-05-24 12:00:00,2011-06-07 20:04:55.026461,,,,,,,,1,f,t
35,Jiunjian Flooding,Flood,29.707,115.873,2010-07-20 12:00:00,2011-05-24 12:00:00,2011-06-07 20:05:06.38753,,,,,,,,1,f,t
36,Hurricane Alex,Hurricane,25.6707,-100.3636,2010-07-01 12:00:00,2011-05-24 12:00:00,2011-06-07 20:05:18.167956,,,,,,,,1,f,t
37,Canada Flooding,Flood,49.9335,-109.485,2010-06-22 12:00:00,2011-05-24 12:00:00,2011-06-07 20:05:29.140929,,,,,,,,1,f,t
39,Myanmar Flooding,Flood,19.259,93.718,2010-06-17 12:00:00,2011-05-24 12:00:00,2011-06-07 20:05:41.658562,,,,,,,,1,f,t
38,China Flooding,Flood,22.201,113.106,2010-06-21 12:00:00,2011-05-24 12:00:00,2011-06-07 20:05:53.752425,,,,,,,,1,f,t
40,OK and AR Flooding,Flood,35.585,-97.4817,2010-06-15 12:00:00,2011-05-24 12:00:00,2011-06-07 20:06:05.14522,,,,,,,,1,f,t
41,Osh Ethnic Violence,Political,40.517,72.805,2010-06-14 12:00:00,2011-05-24 12:00:00,2011-06-07 20:06:21.646184,,,,,,,,1,f,t
44,World Cup 2010 -  Nelson Mandela Bay,Sports,-33.937,25.599,2010-06-11 12:00:00,2011-05-24 12:00:00,2011-06-07 20:06:42.786859,,,,,,,,1,f,t
52,Cyclone Phet,Cyclone,23.613,58.5922,2010-06-04 12:00:00,2011-05-24 12:00:00,2011-06-07 20:07:27.324088,,,,,,,,1,f,t
183,Southern Storms - Tuscaloosa,"On April 27th, the city of Tuscaloosa, Alabama was struck by an EF-4 level tornado with winds reported up to 190 mph. Leaving a scar nearly 6 miles long, 5,000 homes were were destroyed or severely damaged and 43 people lost their lives.",33.193233,-87.537121,2011-04-28 12:00:00,2011-05-24 12:00:00,2011-06-07 22:20:23.214681,,,,,,,,1,f,t
225,Yemen Unrest - Presidential Palace,Political Unrest in Yemen,15.3144,44.2152,2011-06-03 19:45:00,2011-06-03 19:49:19.781384,2011-06-08 06:47:37.393806,,,,,,,,1,f,t
206,"Joplin, MO","An EF-5 multiple-vortex tornado struck the town of Joplin, Missouri the evening of May 22nd. One of the deadliest tornadoes in U.S. history, at least 141 people were killed with an estimated 2,000 buildings destroyed. ",37.060949,-94.530506,2011-05-23 12:00:00,2011-05-24 12:00:00,2011-06-08 15:14:39.825782,,,,,,,,1,f,t
241,South Korea landslides - Chuncheon,Torrential rainfall has triggered flooding and a landslide in Chuncheon killing 16 people according to the National Emergency Management Agency.,37.8815,127.735,2011-07-29 17:49:00,2011-07-29 17:55:09.415237,2011-07-29 17:55:09.415237,http://www.ibtimes.com/articles/189022/20110729/seoul-torrential-rain-torrential-rain-in-south-korea-killing-41-people-natural-disaster-floods-in-so.htm,,,,,,,1,f,t
227,Wallow Fire - Arizona,"According to InciWeb, the Wallow Fire is burning actively in eastern Arizona near the communities of Nutrioso and Alpine. Size is estimated at 233,522 acres.",33.9031,-109.3123,2011-06-06 22:03:00,2011-06-06 22:07:40.930901,2011-06-08 22:11:05.556882,,,,,,,,1,f,t
242,South Korea landslides- Seoul,"In Seoul, the heaviest rains in a century have led to flooding and landslides. At least 67 people are dead or missing.",37.501,127.069,2011-07-29 17:56:00,2011-07-29 18:00:05.949187,2011-07-29 18:00:05.949187,http://www.ibtimes.com/articles/189022/20110729/seoul-torrential-rain-torrential-rain-in-south-korea-killing-41-people-natural-disaster-floods-in-so.htm,,,,,,,1,f,t
425,Flood in Seychelles,"Parts of the Seychelles have declared a state of emergency after severe weather hit the country.  No casualties have been reported, but flooding, landslides and rock falls have hit the main island of Mahe. ",-4.727351,55.520571,2013-02-01 16:30:00,2013-02-01 16:38:25.398234,2013-02-01 16:38:25.398234,http://www.aljazeera.com/weather/2013/01/201312993838165255.html,"",Yellow,16,2013-02-01 16:30:00,2013-02-11 16:30:00,"",6,f,t
367,Flooding in Senegal,"Six people drowned or were killed by falling structures over the weekend, after a torrential rain lashed Senegal, causing houses to crumble and neighborhoods to flood under the rushing water.",14.794,-17.327,2012-08-27 17:30:00,2012-08-27 17:31:47.783475,2012-09-11 20:14:31.292405,http://www.washingtonpost.com/world/africa/6-dead-in-weekend-flooding-in-senegals-capital-says-minister-of-the-interior/2012/08/27/13a4f736-f055-11e1-b74c-84ed55e0300b_story.html,"",Yellow,16,2012-08-27 17:30:00,2012-09-06 17:30:00,"",6,f,t
216,Massachusetts Tornados - Sturbridge,Tornado,42.1082,-72.0789,2011-06-02 00:00:00,2011-06-03 16:43:10.787266,2011-06-03 16:43:10.787266,,,,,,,,1,f,t
230,Jiangxi Flooding - Huanggang,Flooding has displaced thousands of people.,30.428,114.879,2011-06-12 15:45:00,2011-06-12 15:46:17.810356,2011-06-12 15:46:17.810356,,,,,,,,1,f,t
229,Jiangxi Flooding - Xiangyang,Flooding has displaced thousands of people.,27.806,114.426,2011-06-12 15:41:00,2011-06-12 15:45:01.3853,2011-06-12 15:46:40.444434,,,,,,,,1,f,t
231,Jiangxi Flooding - Xianning,Flooding has displaced thousands of people.,29.849,114.1404,2011-06-12 15:46:00,2011-06-12 15:48:17.833641,2011-06-12 15:48:17.833641,,,,,,,,1,f,t
232,Jiangxi Flooding - Xiushui,Flooding has displaced thousands of people.,29.013,114.548,2011-06-12 15:48:00,2011-06-12 15:49:42.690104,2011-06-12 15:49:42.690104,,,,,,,,1,f,t
362,Tropical Cyclone Tembin,"Tembin, the 14th storm of the Pacific typhoon season, is packing winds of 119 kph, with gusts of up to 155 kph, and has a radius of 150 km, the bureau said. 

",22.981153,120.211557,2012-08-20 21:02:00,2012-08-20 21:03:38.179722,2012-08-20 21:03:38.179722,http://www.chinapost.com.tw/taiwan/national/national-news/2012/08/21/351635/Typhoon-Tembin.htm,"",Yellow,16,2012-08-20 21:02:00,2012-09-05 21:02:00,"",8,f,t
233,Souris-Missouri River Flooding - Offutt,"Collection AOIs are defined for Minot ND, Sioux City IA, Offut and Fort Calhoun, NE.",41.1189,-95.9088,2011-06-29 11:15:00,2011-06-29 17:15:37.909463,2011-07-06 19:08:04.159354,,,,,,,,1,f,t
361,Tropical Cyclone Kai-Tak,"At least 27 people have been killed during a typhoon which swept across northern provinces of Vietnam over the weekend, officials have said.",21.012441,105.881309,2012-08-20 20:14:00,2012-08-20 20:16:41.076589,2012-09-24 22:38:30.077784,http://www.bbc.co.uk/news/world-asia-19312295,"",Yellow,16,2012-08-20 20:14:00,2012-09-05 20:14:00,"",8,f,t
378,Tropical Storm Leslie Over Bermuda,"The National Hurricane Center reports Leslie was located about 660km south-southeast of Bermuda with maximum sustained winds of 110kph. Before downgrading to tropical storm status, Leslie spent two days as a Category 1 hurricane over the Atlantic.",32.294642,-64.781528,2012-09-07 19:46:00,2012-09-07 19:54:17.200624,2012-09-07 19:55:12.748599,http://www.huffingtonpost.com/2012/09/07/hurricane-leslie-bermuda_n_1864892.html,"",Yellow,16,2012-09-07 19:46:00,2012-10-17 19:46:00,"",8,f,t
393,Wildfires in Central Washington,"More than 2,000 firefighters have contained about 30% of fires that cover 42,508 acres near Wenatchee.  The Table Mountain Fire near Cle Elum, meanwhile, is at 30,484 acres and 10% contained, with a high potential for further growth.",47.322,-120.512,2012-09-25 17:33:00,2012-09-25 17:38:23.749668,2012-09-25 17:38:23.749668,http://www.yakima-herald.com/stories/2012/09/25/progress-continues-against-central-washington-wildfires,"",Yellow,25,2012-09-25 17:33:00,2012-10-05 17:33:00,"",5,f,t
394,Wildfires in Northern Idaho,"Several wildfires continue to burn in Northern Idaho.  The McGuire Fire Complex, Wesley Fire and Sheep Fire are currently burning in and around the Nez Perce and Payette National Forest. ",45.624,-115.5,2012-09-25 17:43:00,2012-09-25 18:19:41.783251,2012-09-25 18:20:16.470803,http://inciweb.org/incident/3219/,"",Yellow,16,2012-09-25 17:43:00,2012-10-05 17:43:00,"",5,f,t
51,World Cup 2010 -  Soccer City,Sports,-26.234,27.982,2010-06-11 12:00:00,2011-05-24 12:00:00,2012-01-16 16:57:09.75527,"","",Yellow,10,2012-01-16 16:56:00,2012-02-15 16:56:00,"",1,f,t
363,"Ponderosa Fire, California","Firefighters were starting to gain the upper hand Tuesday on a fire that has burned almost 20,000 acres in Northern California, with the blaze 35% contained.

",40.436738,-121.773933,2012-08-21 15:28:00,2012-08-21 15:29:34.158828,2012-08-21 15:29:34.158828,http://latimesblogs.latimes.com/lanow/2012/08/ponderosa-fire-shasta-county-tehama-county-evacuations-manton-shingletown-viola.html,"",Yellow,16,2012-08-21 15:28:00,2012-08-31 15:28:00,"",5,f,t
395,"Shockey Wildfire, California","The Shockey Fire has burned roughly 3,000 acres near the Shockey Truck Trail and the Campo Indian Reservation and is moving east, according to Cal Fire officials. One person has died and 30 homes have been burned.",32.6477,-116.368,2012-09-25 18:35:00,2012-09-25 18:40:56.542045,2012-09-25 18:40:56.542045,http://www.nbcsandiego.com/news/local/Shockey-Deadly-Brush-Fire-San-Diego-Campo-Cal-Fire-171148671.html,"",Yellow,13,2012-09-25 18:35:00,2012-10-05 18:35:00,"",5,f,t
321,Plane Crash in Nigeria,"A passenger plane with about 150 people on board has crashed into buildings in a densely populated district of Nigeria's main city of Lagos.

",6.671,3.313,2012-06-04 16:44:00,2012-06-04 16:56:16.218538,2012-07-31 18:44:17.325149,http://www.bbc.co.uk/news/world-africa-18316130,"",Orange,16,2012-06-04 16:44:00,2012-06-13 16:44:00,"",20,f,t
364,Fires in California,"According to data provided by the U.S. Forest Service, wildfires had burned 276,252 acres across the state as of last week, excluding the large Rush fire on the Nevada border.
",40.568,-120.106,2012-08-22 15:17:00,2012-08-22 15:18:40.345102,2012-08-22 15:18:40.345102,http://www.modbee.com/2012/08/21/2338950/dry-winter-helped-fuel-states.html,"",Orange,25,2012-08-22 15:17:00,2012-09-01 15:17:00,"",5,f,t
397,Pipeline Explosion,"An explosion hit a pipeline just west of the city of Homs on February 15, 2012.",34.711,36.681,2012-10-10 14:08:00,2012-10-10 14:36:53.92409,2012-10-10 14:36:53.92409,http://www.bbc.co.uk/news/world-middle-east-17038164,"",Red,16,2012-10-10 14:08:00,2012-11-09 14:08:00,"",19,f,t
298,"Explosion in Brazzaville, Congo","Huge explosions at an arms depot, which killed at least 146 people in Congo's capital, Brazzaville, were caused by a short-circuit that led to a fire, government officials say.

",-4.243,15.294,2012-03-05 17:10:00,2012-03-05 17:13:45.13309,2012-09-10 20:29:52.430794,http://www.bbc.co.uk/news/world-africa-17254551,AC-2012-000035-COG,Orange,16,2012-03-05 17:10:00,2012-03-15 17:10:00,"",15,f,t
437,"Bomb Blast in Kano, Nigeria","A suicide car bomb attack at a bus stop in the Nigerian city of Kano has killed at least 22 people, police say. No group has admitted responsibility, but Islamist Boko Haram militants have previously attacked Kano.",12.018017,8.541285,2013-03-20 22:01:00,2013-03-20 22:06:48.325997,2013-03-20 22:07:19.086495,http://www.bbc.co.uk/news/world-africa-21845402,"",Yellow,16,2013-03-20 22:01:00,2013-03-21 22:01:00,"",19,f,t
352,Tropical Cyclone Saola-12,"From 28/07/2012 to 30/07/2012, a Hurricane/Typhoon > 74 mph (maximum wind speed of 194 km/h) SAOLA-12 was active in NWPacific. ",26.926815,120.213175,2012-07-30 15:26:00,2012-07-30 15:30:19.109297,2012-07-31 17:45:19.091218,http://www.chinapost.com.tw/taiwan/national/national-news/2012/07/30/349268/Bureau-warns.htm,"",Yellow,16,2012-07-30 15:26:00,2012-08-09 15:26:00,"",8,f,t
365,Flood in Russia,"At least four people have been killed overnight in flash floods in Russia's Black Sea region, officials said Wednesday.

",44.299265,38.879607,2012-08-22 19:06:00,2012-08-22 19:08:00.218318,2012-09-24 21:55:06.635351,http://www.huffingtonpost.com/2012/08/22/russia-floods-black-sea-region_n_1821289.html,"",Yellow,16,2012-08-22 19:06:00,2012-09-01 19:06:00,"",6,f,t
398,Artillery pounds Homs,Artillery positioned outside of Homs began shelling the neighborhood of Baba Amr in February.,34.6064,36.752,2012-10-10 14:37:00,2012-10-10 14:44:46.892462,2012-10-10 14:44:46.892462,http://www.businessweek.com/news/2012-02-06/syrian-forces-shell-cities-to-end-revolt-after-russian-veto.html,"",Red,16,2012-10-10 14:37:00,2012-11-09 14:37:00,"",19,f,t
399,Homs sees worst shelling in months,Aircraft and artillery continue to pound the Homs neighborhood of Al Khaldiyah.,34.745,36.721,2012-10-10 14:46:00,2012-10-10 14:49:44.349075,2012-10-10 14:49:44.349075,http://www.bbc.co.uk/news/world-middle-east-19845165,"",Red,16,2012-10-10 14:46:00,2012-11-09 14:46:00,"",19,f,t
400,Shelling of Jouret al-Shayah,Many clinics in the Homs neighborhood of Jouret al-Shayah were targeted and destroyed in late June/early July.,34.736,36.709,2012-10-10 14:56:00,2012-10-10 14:59:36.930764,2012-10-10 14:59:36.930764,http://blogs.aljazeera.com/topic/syria/residents-jouret-al-shayyah-neighbourhood-homs-are-enduring-shelling-government-forces,"",Red,16,2012-10-10 14:56:00,2012-11-09 14:56:00,"",19,f,t
380,Wildfires in Northern Idaho,"The Mustang Complex fire which was started by a lightning strike on the weekend of July 28-29 is currently only 16% contained and over 261,000 acres have been affected. Meanwhile, the Sheep Fire is almost 14,000 acres and is 10% contained.",45.436,-114.488,2012-09-10 21:17:00,2012-09-10 21:34:34.657556,2012-09-10 21:34:34.657556,http://www.kmvt.com/news/local/169195696.html,"",Yellow,16,2012-09-10 21:17:00,2012-09-20 21:17:00,"",5,f,t
346,Floods in Russia,"The death toll from this weekend’s catastrophic flash floods in southern Russia has climbed to at least 171 people, and authorities warn that figure is likely to increase.",44.935106,38.006252,2012-07-09 16:42:00,2012-07-09 16:45:29.469185,2012-09-24 23:31:54.078626,http://abcnews.go.com/blogs/headlines/2012/07/russia-floods-terrifying-wall-of-water-kills-at-least-144/,"",Yellow,16,2012-07-09 16:42:00,2012-07-19 16:42:00,"",6,f,t
366,Tropical Cyclone ISAAC,"Tropical Storm Isaac strengthened on Friday as it took aim at flood-prone Haiti, but it was not expected to become a hurricane until it barreled into the Gulf of Mexico early next week.",29.858,-89.914,2012-08-24 20:45:00,2012-08-24 20:53:36.122488,2012-09-11 19:40:46.866149,http://www.reuters.com/article/2012/08/24/us-storm-isaac-idUSBRE87L0PH20120824,"",Yellow,16,2012-08-24 20:45:00,2012-09-03 20:45:00,"",8,f,t
347,Heavy Rain in Japan,"Heavy rain triggered flash floods and mudslides in southern Japan on Thursday, causing at least 15 deaths and leaving 11 more people missing.

",32.811732,130.72134,2012-07-13 17:36:00,2012-07-13 17:43:05.280258,2012-07-31 17:53:54.788997,http://www.washingtonpost.com/world/asia_pacific/heavy-rain-causes-flooding-landslides-in-southern-japan-that-kill-9-leave-18-missing/2012/07/12/gJQAT1COfW_story.html,"",Yellow,16,2012-07-13 17:36:00,2012-07-28 17:36:00,"",10,f,t
401,Floods in Northern India,Three waves of devastating floods in India's northern state of Assam have left nearly 4.89 million displaced.  Flooding began in June this year and continued through September. 27 districts had been affected.,26.146084,91.735511,2012-10-15 18:55:00,2012-10-15 19:06:17.573016,2012-10-15 19:06:59.628169,http://europe.chinadaily.com.cn/world/2012-10/15/content_15818364.htm,"",Yellow,16,2012-10-15 18:55:00,2012-10-30 18:55:00,"",6,f,t
344,Floods in India,"Almost one million people have been forced to leave their homes by floods in India as torrential rains lash the north-eastern state of Assam, officials say.",26.192643,91.022243,2012-06-29 17:09:00,2012-06-29 17:13:09.71737,2012-07-31 17:54:54.241919,http://www.bbc.co.uk/news/world-asia-india-18639529,"",Orange,16,2012-06-29 17:09:00,2012-07-29 17:09:00,"",6,f,t
382,"Attack on US Consulate, Benghazi","Gunmen attacked U.S. consulate offices in Libya's eastern city of Benghazi on Tuesday, and fought with security forces in protest against a U.S. film they say is blasphemous, a security official said.",32.061507,20.08064,2012-09-12 17:46:00,2012-09-12 18:01:27.8996,2012-09-24 21:04:25.092453,http://www.cnn.com/2012/09/11/world/meast/egpyt-us-embassy-protests/index.html,"",Yellow,16,2012-09-12 17:46:00,2012-09-22 17:46:00,"",15,f,t
217,Massachusetts Tornados - Wilbraham,Tornado,42.1236,-72.431,2011-06-02 00:00:00,2011-06-03 16:44:00.23763,2011-06-03 16:44:00.23763,,,,,,,,1,f,t
351,London 2012 Summer Olympics,"The 2012 Summer Olympic Games, officially the Games of the XXX Olympiad, also known informally as London 2012, is scheduled to take place in London, United Kingdom, from 27 July until 12 August 2012.",51.538688,-0.016437,2012-07-27 16:23:00,2012-07-27 16:28:25.630048,2012-07-31 17:45:56.832775,http://www.bbc.co.uk/news/uk-19008471,"",Yellow,16,2012-07-27 16:23:00,2012-08-26 16:23:00,"",18,f,t
350,Wildfire in Spain,"Four people, three French nationals and one from Spain, have been killed in forest fires raging in the Spanish region of northern Catalonia. 

",42.338,2.887,2012-07-25 18:12:00,2012-07-25 18:13:41.932057,2012-07-31 17:49:59.188294,http://www.euronews.com/2012/07/23/four-killed-in-catalonia-fires-near-spain-france-border/,"",Yellow,16,2012-07-25 18:12:00,2012-08-04 18:12:00,"",5,f,t
348,Tropical Cyclone Vicente-12,"Vicente, this year's eighth typhoon, made landfall near the city of Taishan in Guangdong province early Tuesday, bringing gales and rainstorms to Guangdong and Guangxi.

",22.244854,112.788992,2012-07-25 15:44:00,2012-07-25 15:51:33.721257,2012-07-31 17:53:32.344442,http://news.xinhuanet.com/english/china/2012-07/25/c_131738793.htm,"",Yellow,16,2012-07-25 15:44:00,2012-08-04 15:44:00,"",8,f,t
342,"Demonstrations in Cairo, Egypt","One demonstrator was killed and 62 injured during massive demonstrations on Sunday in Cairo’s Tahrir Square in celebration of the announcement of Mohamed Morsy as Egypt’s new president, the Ministry of Health said Monday.",30.044472,31.235711,2012-06-25 17:59:00,2012-06-25 18:03:14.954194,2012-07-31 18:00:38.482704,http://www.egyptindependent.com/news/one-dead-62-injured-tahrir-sunday,"",Yellow,16,2012-06-25 17:59:00,2012-07-25 17:59:00,"",15,f,t
333,"Poco Fire, Arizona","The Poco Fire burning in the Tonto National Forest six miles northeast of Young, Arizona, is now 15% contained and has burned a total of 1,500 acres.

",34.177406,-110.874109,2012-06-18 16:55:00,2012-06-18 17:24:45.472199,2012-07-31 18:01:30.234739,http://www.wmicentral.com/news/latest_news/poco-fire-contained-burning-acres-near-young-arizona/article_5bccadb0-b6ad-11e1-979e-0019bb2963f4.html,"",Yellow,16,2012-06-18 16:55:00,2012-06-29 16:55:00,"",5,f,t
332,U.S. Open Golf Championship,"The United States Open Championship, known as the U.S. Open, is the annual open golf tournament of the United States. It is the second of four major championships in golf, and is on the official schedule of both the PGA Tour and the European Tour.",37.70866,-122.494597,2012-06-15 22:24:00,2012-06-15 22:40:45.306644,2012-07-31 18:04:19.647005,http://www.sfgate.com/cgi-bin/article.cgi?f=/g/a/2012/06/15/bloomberg_articlesM5O1RU6VDKHZ01-M5OG3.DTL,"",Yellow,16,2012-06-15 22:24:00,2012-06-25 22:24:00,"",18,f,t
331,Floods in Taiwan,"Torrential rain brought floods to counties in numerous parts of the country, forcing thousands of people to evacuate their homes.

",25.050147,121.497116,2012-06-13 18:51:00,2012-06-13 18:54:52.790841,2012-07-31 18:04:42.166727,http://www.bbc.co.uk/news/world-asia-18425274,"",Yellow,16,2012-06-13 18:51:00,2012-06-24 18:51:00,"",6,f,t
330,"Refugee Crisis in Afgooye, Somalia","The UN refugee agency said on Tuesday some 14,000 Somalis have been displaced from Afgooye, about 30km northwest of Mogadishu, as a result of military activity in the area which started a week ago.
",2.141,45.119,2012-06-12 19:53:00,2012-06-12 19:56:30.834912,2012-07-31 18:05:32.808387,http://www.coastweek.com/3522_somalia_05.htm,"",Orange,16,2012-06-12 19:53:00,2012-07-12 19:53:00,"",15,f,t
329,"Refugee Crisis in Rayhanli, Turkey","Nearly 400 Syrians poured into Turkey in the last 24 hours seeking refuge amid a recent surge in violence in the strife-torn country, a Turkish official said Saturday.",36.241279,36.618354,2012-06-12 19:45:00,2012-06-12 19:53:09.668838,2012-07-31 18:06:08.954216,http://www.nowlebanon.com/NewsArchiveDetails.aspx?ID=404321,"",Yellow,16,2012-06-12 19:45:00,2012-06-22 19:45:00,"",15,f,t
328,"Reported Massacre in Qubair, Syria","Activists said pro-government militia men and security forces killed at least 78 people, including children, in Syria's central province of Hama on Wednesday.

",35.204,36.555,2012-06-12 19:36:00,2012-06-12 19:45:18.652498,2012-07-31 18:06:55.855377,http://www.huffingtonpost.com/2012/06/06/hama-massacre-qubair-syria_n_1575600.html,"",Orange,16,2012-06-12 19:36:00,2012-07-22 19:36:00,"",15,f,t
327,"High Park Fire, Colorado","At least 18 structures have been burned in the fast-moving High Park Fire, which has consumed about 14,000 acres, forced hundreds of people to evacuate their homes and spewed plumes of smoke so thick they hide the Rocky Mountains. ",40.629726,-105.376986,2012-06-10 21:25:00,2012-06-10 21:31:15.816982,2012-07-31 18:41:38.779106,http://www.denverpost.com/breakingnews/ci_20826343/high-park-fire-may-be-14-000-acres-colorado,"",Yellow,16,2012-06-10 21:25:00,2012-06-21 21:25:00,"",5,f,t
326,EURO 2012,"The 2012 UEFA European Football Championship, will be the 14th European Championship for national football teams organized by UEFA. The final tournament is being hosted by Poland and Ukraine between 8 June and 1 July 2012.",52.239444,21.045556,2012-06-08 15:10:00,2012-06-08 15:15:02.514362,2012-07-31 18:43:34.69162,http://edition.cnn.com/2012/06/07/sport/football/football-euro-2012-poland-ukraine/index.html,"",Yellow,16,2012-06-08 15:10:00,2012-07-08 15:10:00,"",18,f,t
320,Wildfire in New Mexico,"Two lightning-sparked blazes that merged in a mountainous southwestern New Mexico forest are close to becoming the largest wildfire in state history, fire officials said Tuesday.

",33.335118,-108.612556,2012-05-30 15:13:00,2012-05-30 15:26:32.390263,2012-07-31 18:45:11.087728,http://www.cbsnews.com/8301-505245_162-57443477/wildfire-close-to-being-new-mexicos-largest-ever/,"",Orange,16,2012-05-30 15:13:00,2012-06-09 15:13:00,"",5,f,t
319,"Joplin, MO - 1 yr Anniversary","An EF-5 multiple-vortex tornado struck the town of Joplin, Missouri the evening of May 22nd. One of the deadliest tornadoes in U.S. history, at least 141 people were killed with an estimated 2,000 buildings destroyed.",37.060949,-94.530506,2012-05-22 18:37:00,2012-05-22 18:42:51.161313,2012-07-31 18:45:40.999404,"","",Yellow,16,2012-05-22 18:37:00,2012-05-23 18:37:00,"",13,f,t
318,Volcanic Eruption in Guatemala,"On Saturday, Fuego Volcano began erupting lava and ash prompting alerts and flight restrictions in the nation's capital of Guatemala",14.475905,-90.882683,2012-05-22 15:00:00,2012-05-22 15:14:51.879831,2012-07-31 18:45:58.586764,http://www.reuters.com/article/2012/05/19/guatemala-volcano-idUSL1E8GJ20420120519,"",Yellow,16,2012-05-22 15:00:00,2012-06-06 15:00:00,"",16,f,t
315,"Terrorist Attack in Sanaa, Yemen","More than 90 people have been killed in a suicide bomb attack at a military parade rehearsal in Yemen's capital, Sanaa, defence ministry officials say.

",15.322,44.204,2012-05-21 16:13:00,2012-05-21 16:14:58.570495,2012-07-31 18:48:57.495898,http://www.bbc.co.uk/news/world-middle-east-18142695,"",Orange,16,2012-05-21 16:13:00,2012-05-31 16:13:00,"",15,f,t
288,Concordia Cruise Wreck,"Italian rescuers have found five more bodies inside the stricken cruise ship Concordia, raising the confirmed death toll to 11.

",42.365671,10.921247,2012-01-17 18:02:00,2012-01-17 18:08:33.065815,2012-07-31 19:06:20.719252,http://www.bbc.co.uk/news/world-europe-16598232,"",Yellow,16,2012-01-17 18:02:00,2012-01-27 18:02:00,"",11,f,t
313,Wildfires in Arizona and Colorado,"Wildfires in Arizona and Colorado spread on Tuesday as firefighters faced problems with rugged terrain and, in some areas, wind.
",34.2304,-110.78355,2012-05-17 15:55:00,2012-05-17 16:27:26.614505,2012-07-31 18:49:15.791104,"http://www.latimes.com/news/nation/nationnow/la-na-nn-west-wildfires-20120515,0,6846924.story","",Yellow,16,2012-05-17 15:55:00,2012-05-27 15:55:00,"",5,f,t
312,"Flood in Gansu Province, China",At least 49 people were killed and 23 others were missing as of Saturday after hail and torrential rain hit Northwest China's Gansu province on Thursday.,34.462516,104.069688,2012-05-14 14:19:00,2012-05-14 14:53:02.311826,2012-07-31 18:49:47.702128,http://www.chinadaily.com.cn/china/2012-05/14/content_15280579.htm,"",Yellow,16,2012-05-14 14:19:00,2012-05-29 14:19:00,"",6,f,t
311,Formula One - Spanish GP,"McLaren's Jenson Button beat Red Bull's Sebastian Vettel to set the fastest time in Friday practice at the Spanish Grand Prix. 

",41.569481,2.257776,2012-05-11 14:28:00,2012-05-11 14:37:39.293174,2012-07-31 18:50:08.515244,http://www.bbc.co.uk/sport/0/formula1/18034090,"",Yellow,16,2012-05-11 14:28:00,2012-05-20 14:28:00,"",18,f,t
310,"Terrorist Attack in Damascus, Syria","A terrorist attack with twin suicide car-bomb attacks have killed at least 55 people and wounded 372 in Damascus, Syrian officials say. 

",33.491401,36.321005,2012-05-10 20:03:00,2012-05-10 20:17:34.265259,2012-07-31 18:50:32.958978,http://www.bbc.co.uk/news/world-middle-east-18015935,"",Yellow,16,2012-05-10 20:03:00,2012-05-20 20:03:00,"",15,f,t
309,Floods in Paraguay,"Heavy rain, which began in March, has caused the Pilcomayo river in Paraguay to overflow; resulting in flooding throughout the country. An estimated 13,000 families have been isolated due to the floods.",-21.698664,-57.88413,2012-05-01 17:05:00,2012-05-01 17:10:55.481318,2012-07-31 18:51:06.508442,http://blogs.scientificamerican.com/guest-blog/2012/04/10/a-river-rams-through-it-argentinas-rio-nuevo-portends-problems-to-come-in-south-america/,FL-2012-000056-PRY ,Yellow,16,2012-05-01 17:05:00,2012-05-16 17:05:00,"",6,f,t
308,Tornado in Kansas,"A tornado hit Wichita on Saturday night as a series of storms tore through central Kansas.
",37.608316,-97.296724,2012-04-16 19:28:00,2012-04-16 19:32:39.662698,2012-07-31 18:51:25.905859,"http://www.latimes.com/news/nation/nationnow/la-na-nn-tornado-wichita-20120414,0,2750332.story","",Yellow,16,2012-04-16 19:28:00,2012-04-26 19:28:00,"",13,f,t
307,Earthquake in Indonesia,"A massive earthquake struck off the coast of the Indonesian island of Sumatra Wednesday afternoon, triggering a tsunami watch for the Indian Ocean, which was later canceled.

",5.55,95.316667,2012-04-11 14:33:00,2012-04-11 14:41:20.911718,2012-07-31 18:53:20.292051,http://www.cnn.com/2012/04/11/world/asia/indonesia-earthquake/index.html?hpt=hp_t1,"",Yellow,16,2012-04-11 14:33:00,2012-05-21 14:33:00,"",4,f,t
306,North Korean Launch,"North Korea plans to launch a satellite using a carrier rocket in April, the country's official news agency said Friday, a move that would violate U.N. Security Council demands.

",39.660074,124.70522,2012-04-04 21:24:00,2012-04-04 21:30:17.617674,2012-07-31 18:53:55.682227,http://news.blogs.cnn.com/2012/03/16/north-korea-says-it-plans-satellite-launch-in-april/?iref=allsearch,"",Orange,16,2012-04-04 21:24:00,2012-04-15 21:24:00,"",18,f,t
305,Tornado in Texas,"Rescuers plan to search the Dallas area again Wednesday for anyone trapped after violent tornadoes flattened homes, sucked up tractor-trailers and sent debris swirling in the air.",32.623626,-96.775453,2012-04-04 15:15:00,2012-04-04 15:20:32.417264,2012-07-31 18:54:13.844535,http://www.cnn.com/2012/04/04/us/texas-weather/index.html?hpt=hp_t1,"",Yellow,16,2012-04-04 15:15:00,2012-04-14 15:15:00,"",13,f,t
304,Flood in Fiji,"Severe flooding in the Pacific island nation of Fiji has killed four people and left 800 people seeking shelter in evacuation centers, a government official said Monday.

",-17.756044,177.443619,2012-04-02 15:18:00,2012-04-02 15:21:52.817567,2012-07-31 18:54:33.220094,http://www.cnn.com/2012/04/02/world/asia/fiji-floods/index.html?iref=allsearch,TC-2012-000044-FJI,Yellow,16,2012-04-02 15:18:00,2012-04-17 15:18:00,"",6,f,t
303,"Lower North Fork Fire, Colorado","Authorities have sent out a pre-evacuation notice to 6,500 homes after a spot fire flared up one mile northwest of Waterton Canyon.
",39.4453,-105.2156,2012-03-27 20:22:00,2012-03-27 20:29:40.178268,2012-07-31 18:54:53.182534,http://www.denverpost.com/breakingnews/ci_20264330/colorado-wildfire-no-containment-lower-north-fork-fire,"",Yellow,16,2012-03-27 20:22:00,2012-04-06 20:22:00,"",5,f,t
302,Coup in Mali,"Renegade soldiers in Mali declared Thursday that they have seized power in the West African nation and dissolved public institutions because of the government's handling of an insurgency. 

",12.660605,-8.006716,2012-03-24 21:49:00,2012-03-24 21:55:06.233298,2012-07-31 18:55:39.059543,http://www.cnn.com/2012/03/22/world/africa/mali-coup/index.html,"",Orange,16,2012-03-24 21:49:00,2012-04-03 21:49:00,"",15,f,t
301,Earthquake in Mexico,"A strong earthquake rattled residents in Mexican resort towns and the nation's capital Tuesday, but there were no immediate reports of serious damage or injuries.

",16.662054,-98.188119,2012-03-20 19:58:00,2012-03-20 21:06:26.957415,2012-07-31 18:56:45.0074,http://www.cnn.com/2012/03/20/world/americas/mexico-earthquake/index.html?hpt=hp_t1,"",Yellow,16,2012-03-20 19:58:00,2012-03-30 19:58:00,"",4,f,t
300,"Explosions in Damascus, Syria","Deadly explosions rocked parts of Damascus on Saturday with some of the targets being Syrian government facilities, witnesses and state television reported.

",33.512596,36.289945,2012-03-19 19:58:00,2012-03-19 20:00:09.365154,2012-07-31 18:57:17.881976,http://articles.cnn.com/2012-03-17/middleeast/world_meast_syria-unrest_1_state-tv-reports-raqqa-hama?_s=PM:MIDDLEEAST,"",Yellow,16,2012-03-19 19:58:00,2012-04-03 19:58:00,"",15,f,t
299,Heavy Floods in Ecuador ,"A state of emergency was declared Thursday for five Ecuadorian provinces where floods triggered by winter rains have left 20 people dead and 2,823 displaced.

",-1.885274,-79.620924,2012-03-09 20:35:00,2012-03-09 20:43:14.269805,2012-07-31 18:57:42.942871,http://news.xinhuanet.com/english/world/2012-03/09/c_131456844.htm,"",Yellow,16,2012-03-09 20:35:00,2012-03-19 20:35:00,"",6,f,t
297,US Midsection Tornadoes,"A swarm of tornadoes tore through the U.S. midsection on Friday, splintering homes, damaging a prison, overturning trucks and killing at least four people in the hard-hit state of Indiana, officials said.

",37.724258,-88.537064,2012-03-02 23:36:00,2012-03-03 00:02:11.222387,2012-07-31 18:58:31.010052,http://www.reuters.com/article/2012/03/02/us-usa-tornadoes-idUSTRE81S2AD20120302,"",Orange,16,2012-03-02 23:36:00,2012-04-02 23:36:00,"",13,f,t
383,Senkaku/Diaoyu Islands Dispute,"Two Chinese-government vessels reached waters near the disputed Senkaku islands as Beijing continued directing angry rhetoric at Tokyo, a day after Japan announced plans to purchase three of the islands from private owners.",25.686293,123.496035,2012-09-12 18:19:00,2012-09-12 18:23:11.060027,2012-09-27 21:53:55.918755,http://online.wsj.com/article/SB10000872396390444100404577644563527295118.html,"",Yellow,16,2012-09-12 18:19:00,2012-10-27 18:19:00,"",19,f,t
381,"Yakima Complex Fire, WA","Lightning strikes have sparked more than 100 wildfires in eastern Washington since Sunday.  The Yakima Complex Fire, which includes portions of Yakima and Kittitas Counties, consists of many small fires burning on local, state and federal land. ",47.427961,-120.406278,2012-09-12 17:39:00,2012-09-12 17:43:55.888379,2012-09-28 18:38:55.57119,http://www.masoncountydailynews.com/news/news-page/38931-wa-wildfire-update-noon-911,"",Yellow,16,2012-09-12 17:39:00,2012-09-22 17:39:00,"",5,f,t
181,Midwest Floods - Tell City,Flood,37.926,-86.749,2011-05-04 12:00:00,2011-05-24 12:00:00,2011-06-02 15:12:44.608945,,,,,,,,1,f,t
295,"Flood in El Tarf, Algeria"," The death toll from floods in El Tarf, last Wednesday, rose to three killed. On Friday, the body of a 26-year-old man was swept away, the Civil Defense said.

",36.767148,8.315363,2012-02-28 18:38:00,2012-02-28 18:50:04.074169,2012-07-31 18:59:08.803189,http://www.aps.dz/Floods-in-El-Tarf-Three-killed.html,"",Yellow,16,2012-02-28 18:38:00,2012-03-09 18:38:00,"",6,f,t
292,Flood in Mozambique,"Mozambique struggled with the destruction of a portion of its main national highway, cut-off communications and a reported death toll of 18, according to the nation's National Institute for Natural Disasters.",-25.966667,32.583333,2012-02-06 19:52:00,2012-02-06 19:59:18.274062,2012-07-31 19:00:07.278998,http://www.cnn.com/2012/01/24/world/africa/mozambique-severe-flooding/index.html,FL-2011-000013-MOZ,Yellow,16,2012-02-06 19:52:00,2012-03-01 19:52:00,"",6,f,t
291,Philippines Earthquake ,"At least 15 people have died after a 6.7 magnitude quake struck the central Philippines, according to government officials. 

",10.0312,123.174591,2012-02-06 18:46:00,2012-02-06 18:50:06.39752,2012-07-31 19:00:30.262729,http://www.bbc.co.uk/news/world-asia-16901385,EQ-2012-000018-PHL,Yellow,16,2012-02-06 18:46:00,2012-02-21 18:46:00,"",4,f,t
290,"One-Year Anniversary of Tahrir Square Protests in Cairo, Egypt  ","Thousands of Egyptians are holding a rally in Cairo's Tahrir Square marking the first anniversary of the uprising which toppled President Hosni Mubarak.

",30.044422,31.235696,2012-01-25 18:58:00,2012-01-25 19:01:01.991891,2012-07-31 19:01:02.214166,http://www.bbc.co.uk/news/world-middle-east-16711302,"",Yellow,16,2012-01-25 18:58:00,2012-02-04 18:58:00,"",7,f,t
289,"Boko Haram Bombing in Kano, Nigeria","Co-ordinated attacks by Islamist militants in the northern Nigerian city of Kano on Friday killed at least 160 people.
",11.998,8.522419,2012-01-23 16:20:00,2012-01-23 17:32:31.420657,2012-07-31 19:04:20.545978,http://www.bbc.co.uk/news/world-africa-16672310#story_continues_1,"",Orange,16,2012-01-23 16:20:00,2012-01-24 16:20:00,"",15,f,t
284,Syria Protests,"The Syrian authorities have responded to widespread anti-government protests with overwhelming military force. The protests pose the greatest challenge to four decades of Assad family rule in the country.

",34.724102,36.710837,2011-12-06 17:47:00,2011-12-06 17:57:25.611551,2012-07-31 19:07:54.09268,http://www.bbc.co.uk/news/world-middle-east-16044458,"",Yellow,16,2011-12-06 17:47:00,2012-01-05 17:47:00,"",9,f,t
282,"Protests in Cairo, Egypt",Clashes have again erupted in the Egyptian capital as security forces continue their efforts to clear Cairo's Tahrir Square of protesters. At least 20 people are reported to have died since the violence began on Saturday with hundreds more injured.,30.058056,31.228889,2011-11-21 17:33:00,2011-11-21 17:35:46.169433,2012-07-31 19:08:21.123776,http://www.bbc.co.uk/news/world-middle-east-15814035,"",Yellow,16,2011-11-21 17:33:00,2011-12-01 17:33:00,"",9,f,t
281,"Fire in Reno, Nevada","Thousands of northern Nevadans fled their homes as a massive and sudden wildfire raged out of control on Friday, consuming Sierra Nevada foothills and spreading down to the valley floor. 

",39.478009,-119.869487,2011-11-18 21:47:00,2011-11-18 21:54:09.352978,2012-07-31 19:08:43.007984,http://www.msnbc.msn.com/id/45354176/ns/weather/,WF-2011-000175-USA,Orange,16,2011-11-18 21:47:00,2011-11-29 21:47:00,"",5,f,t
280,Dubai Airshow 2011,"Aircraft orders over $47 billion have been booked at the Dubai Airport Expo, the largest event of its kind in the Middle East. More than 1,000 companies from 50 countries have converged on Dubai's International Airport this week for the exhibition. ",25.252,55.3665,2011-11-16 17:28:00,2011-11-16 17:44:31.433819,2012-07-31 19:09:20.684451,http://www.bbc.co.uk/news/business-15164597,"",Yellow,16,2011-11-16 17:28:00,2011-12-18 17:28:00,"",2,f,t
286,Flooding in Brazil,Heavy rains have caused flooding and landslides in the states of Minas Gerais and Rio de Janeiro.,-21.757037,-41.237328,2012-01-09 20:52:00,2012-01-09 21:22:04.757904,2012-09-17 16:15:53.1639,http://www.bbc.co.uk/news/world-latin-america-16420098,FL-2012-000003-BRA,Yellow,16,2012-01-09 20:52:00,2012-02-01 20:52:00,"",6,f,t
317,Earthquake in Italy,"Thousands of people left homeless by a powerful earthquake in northern Italy have spent the night in shelters as aftershocks continue to hit the region. 

",45.0111,11.275,2012-05-21 18:56:00,2012-05-21 19:05:27.700346,2012-09-12 22:11:26.737929,http://www.bbc.co.uk/news/world-europe-18140543,EQ-2012-000080-ITA,Yellow,16,2012-05-21 18:56:00,2012-05-31 18:56:00,"",4,f,t
279,The Hajj,"An estimated 2.5 million people will make the annual Islamic pilgrimage to Mecca, Saudi Arabia. It is a religious duty for every Muslim who is able to make the pilgrimage once in their life.",21.423,39.826,2011-11-02 22:20:00,2011-11-02 22:31:45.455637,2012-09-11 18:15:46.856333,http://www.google.com/hostednews/afp/article/ALeqM5gsre6tLJAkMFwePRNSAlszY2aqIQ?docId=CNG.b8acfbc8dffcbd340e12dc8e0f2b4923.691,"",Yellow,16,2011-11-10 23:32:00,2011-12-10 23:32:00,"",18,f,t
316,"Champions League Final - Munich, Germany",Chelsea stunned Bayern Munich in a dramatic penalty shoot-out at the Allianz Arena to win the Champions League for the first time. ,48.218918,11.624522,2012-05-21 16:19:00,2012-05-21 16:24:21.940325,2012-12-03 19:06:56.239119,http://www.bbc.co.uk/sport/0/football/18044385,"",Yellow,16,2012-05-21 16:19:00,2012-05-31 16:19:00,"",18,f,t
371,Tropical Cyclone Bolaven,"Typhoon Bolaven killed at least eight people as it lashed the Korean peninsula with strong winds and heavy rain, capsizing fishing boats and grounding aircraft.",37.562656,126.975356,2012-08-28 19:54:00,2012-08-28 19:57:50.815988,2012-08-28 19:57:50.815988,http://blogs.wsj.com/korearealtime/2012/08/28/typhoon-bolaven-hits-korean-peninsula/,"",Yellow,25,2012-08-28 19:54:00,2012-09-27 19:54:00,"",8,f,t
278,Peru Earthquake,On October 28th a 6.9 magnitude earthquake struck Ica Province in Peru. The provincial capital was most affected with more than 100 buildings destroyed. ,-14.0642,-75.7444,2011-10-31 20:41:00,2011-10-31 20:47:35.125324,2012-07-31 22:14:31.763922,http://global.christianpost.com/news/peru-earthquake-2011-earthquake-destroys-134-homes-damages-18th-century-cathedral-59825/,"",Yellow,16,2012-07-31 22:14:00,2012-08-30 22:14:00,"",4,f,t
277,Kenyan Incursion into Somlia,"Kenyan troops have moved into Somalia in an attempt to contain violence along its border. Recent kidnappings of aid workers and tourists have been linked to al-Shabaab, reportedly operating from the town of Afmadow.",0.513,42.07402,2011-10-28 18:02:00,2011-10-28 18:08:49.161614,2012-07-31 22:15:13.706883,http://www.bbc.co.uk/news/world-africa-15349597,"",Yellow,16,2012-07-31 22:14:00,2012-08-30 22:14:00,"",19,f,t
415,Tropical Cyclone Evan,"Tropical Cyclone Evan passed over Samoa, Wallis, and Futuna between December 13th and 16th 2012. Most of the damage caused was to infrastructure, roads, and crops.  Relief efforts are underway.",-13.292,-176.203,2012-12-17 16:51:00,2012-12-17 16:57:43.628576,2012-12-17 17:08:17.873828,http://www.disasterscharter.org/web/charter/home,"",Yellow,16,2012-12-17 16:51:00,2013-01-06 16:51:00,"",8,f,t
276,Hudson Volcano,The Chilean government has issued a red alert for residents living within 40km of Cerro Hudson. It last erupted in 1991 causing millions of dollars in damage.,-45.8998,-72.9701,2011-10-28 17:21:00,2011-10-28 18:02:41.028395,2012-07-31 22:15:44.773007,http://www.foxnews.com/world/2011/10/28/ash-cloud-rises-above-restive-chilean-volcano/,"",Yellow,16,2012-07-31 22:15:00,2012-08-30 22:15:00,"",16,f,t
275,Turkey Earthquake, At least 230 are dead and 1300 are injured after earthquake after a 7.2- magnitude earthquake devastated parts of eastern Turkey.,38.510833,43.375159,2011-10-24 16:16:00,2011-10-24 16:21:29.760217,2012-07-31 22:16:14.262777,http://www.cnn.com/2011/10/24/world/europe/turkey-quake/,"",Orange,16,2012-07-31 22:16:00,2012-08-30 22:16:00,"",4,f,t
269,Flood in Bangkok,"Thailand's capital was braced for unprecedented flooding Wednesday, amid the monsoon rains that have overwhelmed much of the country ",13.752222,100.493889,2011-10-12 17:59:00,2011-10-12 18:00:40.970469,2012-07-31 22:17:14.192861,http://www.cnn.com/2011/10/12/world/asia/thailand-floods/index.html?iref=storysearch,"",Orange,16,2012-07-31 22:17:00,2012-08-30 22:17:00,"",6,f,t
268,"Rena Oil Spill, New Zealand","Officials say 350 tonnes of oil may have leaked from the 775ft (236m) Rena, which ran aground on the Astrolabe Reef off the port of Tauranga on Wednesday.

",-37.540619,176.4292,2011-10-11 21:43:00,2011-10-11 22:08:05.703445,2012-07-31 22:17:44.192425,http://www.bbc.co.uk/news/world-asia-pacific-15251319,"",Yellow,16,2012-01-12 20:55:00,2012-02-11 20:55:00,"",20,f,t
267,"Flood in el-Bayadh, Algeria","Torrential rains have caused flooding in el-Bayadh, Algeria. At least a dozen people have been killed and hundreds of homes have been destroyed.",33.683,1.0202,2011-10-06 16:09:00,2011-10-06 16:12:16.322868,2012-07-31 22:18:08.08102,http://www.washingtonpost.com/world/africa/algeria-floods-kill-10-2-missing-hundreds-of-homes-affected/2011/10/02/gIQAaBPzFL_story.html,"",Yellow,16,2012-07-31 22:17:00,2012-08-30 22:17:00,"",6,f,t
266,Chemical Plant Fire - Texas,"A fire at a Magnablend chemical plant on Monday Oct. 3rd, forced the evacuation of nearby schools and residences. The plant was destroyed, but there were no casualties. ",32.4221,-96.8552,2011-10-06 15:36:00,2011-10-06 15:45:50.531357,2012-07-31 22:18:26.863522,http://www.star-telegram.com/2011/10/04/3419995/electrical-spark-may-have-touched.html,"",Yellow,16,2012-07-31 22:18:00,2012-08-30 22:18:00,"",20,f,t
370,Flooding in Niger,"At least 44 people have been killed and thousands more made homeless after heavy floods caused the Niger River to overflow earlier this week, flooding parts of the capital Niamey and other areas",13.516176,2.104874,2012-08-28 19:19:00,2012-08-28 19:20:36.299249,2012-08-28 19:20:36.299249,http://www.iol.co.za/news/africa/niger-floods-claim-44-lives-1.1369484,"",Yellow,16,2012-08-28 19:19:00,2012-09-07 19:19:00,"",6,f,t
265,Suicide Car Bomb in Mogadishu,"A huge suicide attack near government buildings in the Somali capital, Mogadishu, kills at least 70 people and injures many more, local officials say.
",2.031616,45.310686,2011-10-04 18:20:00,2011-10-04 18:28:50.600921,2012-07-31 22:19:11.324409,http://www.bbc.co.uk/news/world-africa-15166107,"",Yellow,16,2012-07-31 22:18:00,2012-08-30 22:18:00,"",15,f,t
264,Ethnic Clash in North Kosovo,Several people have been injured in a clash between ethnic Serbs and Nato peacekeepers in the north of Kosovo.,42.880972,20.867189,2011-10-04 18:16:00,2011-10-04 18:19:44.082968,2012-07-31 22:19:39.549335,http://www.bbc.co.uk/news/world-europe-15082675,"",Yellow,16,2012-07-31 22:19:00,2012-08-30 22:19:00,"",15,f,t
263,Typhoon Nesat,"Powerful typhoon Nesat made landfall in the Philippines, causing severe floods in Manila. The death toll rose to 18 with 35 still missing after heavy rain and powerful winds triggered storm surges.",14.583333,120.966667,2011-09-28 17:53:00,2011-09-28 18:00:13.100227,2012-07-31 22:20:43.916553,http://www.bbc.co.uk/news/world-asia-pacific-15086050,"",Yellow,16,2012-07-31 22:20:00,2012-08-30 22:20:00,"",8,f,t
262,Pakistan Flooding,"For the second year in a row, Sindh province has been devastated by monsoonal flooding. An estimated 8 million people are affected.",25.893,68.524,2011-09-22 18:14:00,2011-09-22 18:18:49.577259,2012-07-31 22:23:54.752392,http://www.bbc.co.uk/news/world-south-asia-15015765,"",Yellow,16,2012-07-31 22:23:00,2012-08-30 22:23:00,"",6,f,t
270,Flood in Cambodia,"Flooding in Cambodia has killed over 200 people since early September. Thousands of people have evacuated as the increasing flood situation has caused massive damage.
",11.512,104.919,2011-10-12 22:08:00,2011-10-12 22:11:24.24741,2012-09-11 18:34:37.250548,http://www.bbc.co.uk/news/world-asia-pacific-15246653,"",Yellow,16,2012-07-31 22:16:00,2012-08-30 22:16:00,"",6,f,t
261,Yemen Protests,Dozens of protesters have been killed in the last few days. Reports out of Sana'a suggest that governments forces are shooting and shelling protest camps. Violence has erupted around the country.,15.3648,44.1893,2011-09-20 17:08:00,2011-09-20 17:16:15.232066,2012-07-31 22:24:32.725794,"http://www.latimes.com/news/nationworld/world/la-fg-yemen-protests-20110920,0,4139282.story","",Yellow,16,2012-07-31 22:24:00,2012-08-30 22:24:00,"",15,f,t
260,Indian State of Sikkim Earthquake,At least 11 people -- six in India and five in Nepal -- died when a magnitude-6.9 earthquake struck the northern Indian state of Sikkim near the border between the two nations Sunday night,26.957404,88.559205,2011-09-19 22:58:00,2011-09-18 23:05:37.832772,2012-07-31 22:24:53.706189,http://www.cnn.com/2011/WORLD/asiapcf/09/18/india.earthquake/,"",Yellow,16,2012-07-31 22:24:00,2012-08-30 22:24:00,"",4,f,t
259,Nairobi Pipeline Explosion,At least 75 people have been killed and more than a 100 injured in the slums surrounding the Lunga Lunga industrial area following a gas pipeline explosion.,-1.304,36.872,2011-09-12 16:50:00,2011-09-12 16:57:34.371862,2012-07-31 22:25:15.193988,http://www.bbc.co.uk/news/world-africa-14879401,"",Yellow,16,2012-07-31 22:25:00,2012-08-30 22:25:00,"",20,f,t
258,Transition in Libya,The National Transitional Council has been negotiating with Gaddafi loyalists for their peaceful surrender. ,32.876,13.187,2011-09-08 20:44:00,2011-09-08 22:11:29.574833,2012-07-31 22:25:43.772757,http://www.bbc.co.uk/news/world-africa-14841901,"",Yellow,16,2012-07-31 22:25:00,2012-08-30 22:25:00,"",15,f,t
256,Texas Fires,"More than 1,000 homes have been destroyed by recent fires in Texas and thousands have been evacuated. An estimated 85 fires are now burning.",30.27,-97.759,2011-09-06 16:59:00,2011-09-06 17:03:12.735069,2012-07-31 22:26:08.995674,http://latimesblogs.latimes.com/nationnow/2011/09/texas-wildfires-more-than-1000-homes-lost.html,"",Yellow,16,2012-07-31 22:25:00,2012-08-30 22:25:00,"",5,f,t
257,Typhoon Talas,"At least 50 people are missing and 37 people have been killed by the storm, which made landfall on Shikoku Island, triggering floods and landslides throughout Japan. Talas is currently the most destructive Typhoon since 2004.",34.032176,135.744324,2011-09-03 01:00:00,2011-09-06 18:49:25.468644,2012-07-31 22:26:26.084589,http://www.bbc.co.uk/news/world-asia-pacific-14783904,"",Yellow,16,2012-07-31 22:26:00,2012-08-30 22:26:00,"",8,f,t
439,"Seleka Rebels Seize Capital Bangui, Central African Republic  ","Rebel forces arrived on the outskirts of Bangui on Saturday.  13 South African soldiers were killed defending the capital. Following the takeover, the African Union has suspended CAR and imposed sanctions on Seleka's leaders.",4.394,18.544,2013-03-25 15:49:00,2013-03-25 16:06:29.141174,2013-03-25 16:11:16.532999,http://www.bbc.co.uk/news/world-africa-21923624,"",Yellow,16,2013-03-25 15:49:00,2013-04-05 15:49:00,"",19,f,t
416,Tropical Cyclone Evan over Fiji,Tropical Cyclone Evan hit Fiji on December 17th 2012 as a Category 4 cyclone.  Evan is the largest cyclone to hit Fiji in 20 yrs.  Currently no casualties have been reported.  ,-17.619,177.4509,2012-12-18 16:28:00,2012-12-18 16:39:35.553955,2012-12-18 16:39:35.553955,http://www.bbc.co.uk/news/world-asia-20765061,"",Yellow,13,2012-12-18 16:28:00,2013-01-07 16:28:00,"",8,f,t
405,"Hurricane Sandy storm damage, Haiti","Hurricane Sandy tore through the Caribbean between 26-28 October, leaving a reported 51 dead in Haiti and another 15 missing. The country's housing and terrain are particularly vulnerable to flooding.",18.538078,-72.30132,2012-10-31 18:58:00,2012-10-31 19:00:23.18695,2012-12-18 17:42:53.484285,http://www.disasterscharter.org/web/charter/activation_details?p_r_p_1415474252_assetId=ACT-418,TC-2012-000180-HTI,Orange,16,2012-10-29 18:58:00,2012-11-08 18:58:00,"",8,f,t
255,Flooding in Nigeria,"Over a hundred people have been killed and at least 1,500 people are displaced by torrential rain in the Oyo state capital of Ibadan. Water overflowing a dam washed away settlements.",7.3946,3.9183,2011-09-01 16:22:00,2011-09-01 16:28:44.393237,2012-07-31 22:26:44.640631,http://www.bbc.co.uk/news/world-africa-14735726,"",Yellow,16,2012-07-31 22:26:00,2012-08-30 22:26:00,"",6,f,t
254,Burning Man,"The 25th annual Burning Man Festival kicked off on Monday in the Black Rock desert 100 miles north of Reno. This year's theme is ""Rites of Passage.""",40.7734,-119.2191,2011-08-30 14:59:00,2011-08-30 15:03:50.648491,2012-07-31 22:27:08.846456,http://www.cbsnews.com/8301-31749_162-20099174-10391698.html,"",Yellow,16,2012-07-31 22:26:00,2012-08-30 22:26:00,"",18,f,t
253,Uganda Landslide,Dozens have been killed and dozens are still missing in Bulambuli after a landslide following torrential rains.,1.4333,34.311,2011-08-30 14:39:00,2011-08-30 14:48:47.092792,2012-07-31 22:27:25.404203,http://www.bbc.co.uk/news/world-14707826,"",Yellow,16,2012-07-31 22:27:00,2012-08-30 22:27:00,"",17,f,t
250,Fall of Tripoli,Rebels have entered Tripoli and are fighting Gaddafi loyalists for control of the Libyan capital.,32.879,13.1855,2011-08-22 17:17:00,2011-08-22 17:19:51.506731,2012-07-31 22:28:38.478217,http://www.bbc.co.uk/news/world-africa-14611549,"",Orange,16,2012-07-31 22:28:00,2012-08-30 22:28:00,"",15,f,t
249,MAKS-2011 Air Show,"Over 200 military and civilian aircraft will be on display at the MAKS Air Show, including the Airbus A380, Boeing's 787 Dreamliner, and of particular note, the public unveiling of Sukhoi's T-50, Russia's next-generation stealth fighter.",55.5668,38.1401,2011-08-18 20:57:00,2011-08-18 21:00:09.402531,2012-07-31 22:28:59.617774,http://english.ruvr.ru/2011/08/16/54699802.html,"",Yellow,16,2012-07-31 22:28:00,2012-08-30 22:28:00,"",18,f,t
246,Horn of Africa Famine,The worst drought in over 60 years has created a famine in the Horn of Africa. Millions of people have been impacted and hundreds of thousands have been displaced. ,2.338,42.9905,2011-08-16 21:18:00,2011-08-16 21:25:49.308846,2012-07-31 22:29:30.038326,http://www.voanews.com/english/news/africa/decapua-somalia-dadaab-update-10aug11-127453423.html,"",Yellow,16,2012-07-31 22:29:00,2012-08-30 22:29:00,"",17,f,t
244,Syrian Protests,"Syrian security forces continue operations to crush protesters throughout the country. An estimated 1,400 people have been killed since March.",33.518,36.313,2011-08-09 18:07:00,2011-08-09 18:12:42.178972,2012-07-31 22:29:46.944546,http://www.bbc.co.uk/news/world-middle-east-14179188,"",Orange,16,2012-07-31 22:29:00,2012-08-30 22:29:00,"",15,f,t
372,Burning Man 2012,"San Francisco cleared out considerably over the weekend as tens of thousands of artists, dreamers, hippies, techies, corporate professionals, newcomers and veteran Burners made a mass exodus to Nevada for the annual festival.",40.78292,-119.209052,2012-08-28 21:14:00,2012-08-28 21:18:41.970523,2012-08-28 21:18:41.970523,http://www.huffingtonpost.com/2012/08/27/burning-man-2012_n_1834494.html,"",Yellow,10,2012-08-28 21:14:00,2012-09-07 21:14:00,"",18,f,t
385,Vulcan del Fuego Eruption,"Authorities ordered the evacuation of more than 33,000 people in 17 communities following the eruption of Vulcan del Fuego.  Thick clouds of ash reduced visibility to less than 10 feet in the area of sugar cane fields surrounding the volcano.  ",14.482778,-90.882778,2012-09-14 15:41:00,2012-09-14 16:11:19.23228,2012-09-14 16:11:19.23228,http://www.france24.com/en/20120914-guatemalan-volcano-prompts-tens-thousands-evacuate-volcan-fuego-antigua,"",Orange,16,2012-09-14 15:41:00,2012-09-29 15:41:00,"",16,f,t
354,Wacken Open Air 2012,"At least 75,000 heavy metal fans from 35 different countries descended on the tiny northern German town of Wacken, for the world famous Wacken Open Air Festival which will see more than 130 bands on seven stages.",54.031141,9.359064,2012-08-03 16:21:00,2012-08-03 16:25:54.876353,2012-08-03 16:25:54.876353,http://www.thelocal.de/society/20120803-44135.html,"",Yellow,16,2012-08-03 16:21:00,2012-08-13 16:21:00,"",18,f,t
343,Floods in Canada,More than 340 people have been ordered out of their homes in the community of Sicamous in the British Columbia Interior after heavy rains sent water and mud flowing through the streets.,50.884,-118.919,2012-06-25 19:36:00,2012-06-25 19:38:54.235368,2012-09-17 15:36:16.089017,http://www.ctv.ca/CTVNews/Canada/20120624/BC-flooding-evacuation-120624/,"",Yellow,16,2012-06-25 19:36:00,2012-07-10 19:36:00,"",6,f,t
296,Flood and Ocean Storm in Madagascar,"Torrential rain has flooded large parts of Madagascar following the passing of Tropical Cyclone Irina on 01 March 2012.
",-21.743907,43.364,2012-03-02 18:50:00,2012-03-02 19:22:57.486217,2012-09-17 15:52:43.225118,http://www.trust.org/alertnet/news/tropical-storm-irina-struck-madagascar-at-about-0000-gmt-on-2-march,"",Yellow,16,2012-03-02 18:50:00,2012-03-12 18:50:00,"",6,f,t
294,Flood in Peru,"On Friday, intensive rain caused collapses in bridges over the Ilave River, in Peru, and the resulting flooding caused damage to houses, along with several deaths and crop loss. The waters left many isolated.

",-16.084343,-69.647051,2012-02-21 22:21:00,2012-02-21 22:34:56.908392,2012-09-17 15:57:05.049146,http://www.peruviantimes.com/25/floods-damage-crops-roads-and-housing-in-andean-highlands/11040/,"",Yellow,16,2012-02-21 22:21:00,2012-03-07 22:21:00,"",6,f,t
407,Earthquake in Guatemala,"Thirty-nine people have been killed and many more are missing after a 7.4-magnitude quake hit off the Guatemala's Pacific coast, the nation's president has said.",14.301,-91.907,2012-11-07 23:45:00,2012-11-07 23:48:09.778762,2012-11-13 19:33:39.999118,http://www.bbc.co.uk/news/world-latin-america-20243894,EQ-2012-000188-GTM,Yellow,16,2012-11-07 23:45:00,2012-11-17 23:45:00,"",4,f,t
417,Tasmania Fire,"Bushfires have burned about 29,000 hectares in southeast Tasmania. High heat and strong winds persist and scores are coming to grips with the destruction. In Dunalley, 65 homes and an elementary school were destroyed.",-42.887714,147.811214,2013-01-07 19:48:00,2013-01-07 19:57:12.567255,2013-01-07 19:57:12.567255,http://www.cnn.com/2013/01/06/world/asia/australia-wildfire/index.html,"",Yellow,16,2013-01-07 19:48:00,2013-01-17 19:48:00,"",5,f,t
355,"Noble Fire, Oklahoma","The Noble fire in Cleveland County, south of Oklahoma City, affected about 7,800 acres and had destroyed 25 structures -- including homes and outbuildings -- as of Saturday, officials said.",35.150372,-97.250977,2012-08-06 16:08:00,2012-08-06 16:23:54.481234,2012-08-06 16:23:54.481234,http://articles.cnn.com/2012-08-04/us/us_oklahoma-wildfires_1_high-temperatures-and-winds-fire-conditions-big-fire,"",Yellow,10,2012-08-06 16:08:00,2012-08-16 16:08:00,"",5,f,t
374,Wildfires in California,"Fires have yet to relinquish their grip on northern California forests. The Fort Complex Fire began with a lightning strike on August 5 and now a month later over 23,000 acres have been affected and the fire is 30% contained.",41.0293,-122.0577,2012-09-05 17:55:00,2012-09-05 18:01:59.587509,2012-09-05 18:01:59.587509,http://www.nasa.gov/mission_pages/fires/main/usa/20120904-california.html,"",Yellow,25,2012-09-05 17:55:00,2012-09-15 17:55:00,"",5,f,t
390,Mount Soputan Eruption,"One of Indonesia's most active volcanos has erupted, shooting ash and smoke nearly 1½ kilometers (1 mile) into the sky.",1.108,124.73,2012-09-18 16:56:00,2012-09-18 17:01:42.51293,2012-09-18 17:01:57.609183,http://www.huffingtonpost.com/2012/09/18/mount-soputan-volcano-erupts-indonesia_n_1893269.html,"",Yellow,16,2012-09-18 16:56:00,2012-10-03 16:56:00,"",16,f,t
356,Volcanic Eruption in New Zealand,"Scientists in New Zealand are monitoring Mount Tongariro carefully after the volcano erupted last night for the first time in 115 years.

",-39.133333,175.641667,2012-08-07 15:20:00,2012-08-07 15:22:29.357951,2012-08-07 15:22:29.357951,http://www.abc.net.au/news/2012-08-07/an-major-disruptions-after-nz-volcano-tongariro-erupts/4181502,"",Yellow,10,2012-08-07 15:20:00,2012-09-06 15:20:00,"",16,f,t
375,"Pine Creek Fire, Montana","The Pine Creek Fire has burned approximately 8,000 acres south of Livingston and over 400 people remain on the scene to work the fire.

",45.5058,-110.517,2012-09-05 18:05:00,2012-09-05 18:08:49.17136,2012-09-05 18:08:49.17136,http://www.ktvq.com/news/pine-creek-fire-update/,"",Yellow,13,2012-09-05 18:05:00,2012-09-15 18:05:00,"",5,f,t
387,Tropical Cyclone Sanba,"A powerful typhoon lashed North and South Korea with strong wind and heavy rain Monday, killing at least one person, leaving dozens of others homeless and cutting power to many homes and businesses in the South.",35.164775,129.121585,2012-09-17 18:12:00,2012-09-17 18:34:32.180086,2012-09-18 17:16:16.426784,http://www.huffingtonpost.com/2012/09/17/typhoon-sanba-2012-batter_n_1890091.html,"",Yellow,16,2012-09-17 18:12:00,2012-09-27 18:12:00,"",8,f,t
357,Sziget Festival 2012,"Placebo, LMFAO, The Killers and over 150 groups from Hungary, Europe and further afield will grace the stages at Budapest’s 20th Sziget Festival on Aug. 6-13, one of Europe’s most popular music events.",47.554287,19.055185,2012-08-07 21:09:00,2012-08-07 21:21:38.618176,2012-08-07 21:25:13.860922,http://www.hurriyetdailynews.com/budapests-famed-sziget-fest-begins.aspx?pageID=238&nID=27116&NewsCatID=383,"",Yellow,16,2012-08-07 21:09:00,2012-08-17 21:09:00,"",18,f,t
391,Flooding in Pakistan,"Torrential rain, which began on September 5th, has caused flash floods in Pakistan leaving an estimated one million people homeless. Over 100 people have been reported killed in the floods, and many homes and properties have been inundated.",28.333333,68.396667,2012-09-18 17:06:00,2012-09-18 17:53:43.225098,2012-09-27 21:35:30.264486,http://www.bbc.co.uk/news/world-asia-19545784,"",Yellow,16,2012-09-18 17:06:00,2012-10-03 17:06:00,"",6,f,t
409,Explosion in Indiana,"Authorities from various Indianapolis, Indiana and federal agencies scoured the rubble Sunday searching for clues to just what caused a massive and deadly explosion late Saturday night on the Far-Southside of the city.",39.6452,-86.0981,2012-11-12 22:13:00,2012-11-12 22:15:46.85001,2012-11-12 22:15:46.85001,http://www.usatoday.com/story/news/nation/2012/11/11/indianapolis-explosion-homes-fire/1697195/,"",Yellow,5,2012-11-12 22:13:00,2012-11-22 22:13:00,"",20,f,t
389,Fires in Ecuador,"22 fire fighters were wounded in Ecuador after an arson attack on Tuesday. The worst affected provinces are Pichincha, El Oro and Azuay. Eight provinces were issued with an Orange alert. No victims have been reported.",-0.285558,-78.62752,2012-09-17 18:43:00,2012-09-17 18:53:22.186852,2012-09-17 19:16:18.921467,http://www.plenglish.com/index.php?option=com_content&task=view&id=543626&Itemid=1,"",Yellow,16,2012-09-17 18:43:00,2012-09-27 18:43:00,"",20,f,t
388,Floods and Landslides in India,"On Friday, a series of cloudbursts struck the Himalayan state of Uttarkhand, triggering flash floods and landslides. At least 45 people have been killed and 35 others are missing whilst several more are injured.",30.467745,79.101382,2012-09-17 18:35:00,2012-09-17 18:41:14.418236,2012-11-13 19:35:23.758129,http://www.bbc.co.uk/news/world-asia-india-19596181,FF-2012-000166-IND,Yellow,16,2012-09-17 18:35:00,2012-09-27 18:35:00,"",6,f,t
243,Japan Flooding - Sanjo and Tadami,"Record rainfall in the eastern Niigata/western Fukushima prefectures have led to the advised evacuation of nearly 300,000 people.",37.47,139.219,2011-08-01 17:09:00,2011-08-01 17:13:39.641997,2012-07-31 19:05:22.011817,http://www.google.com/hostednews/afp/article/ALeqM5ijZ08b6_UaTV0m3ISlYZShE3sDuQ?docId=CNG.b802f980032bd7c04d75f200f787b575.341,"",Yellow,16,2012-07-31 19:04:00,2012-08-30 19:04:00,"",6,f,t
252,Hurricane Irene,"Currently rated a Category 2, Hurricane Irene may become a Cat 3 by the time it makes landfall near North Carolina's Outer Banks Saturday morning, drenching the East Coast as far north as Boston.",34.7106,-76.6188,2011-08-26 18:30:00,2011-08-26 18:36:58.419866,2012-07-31 22:27:41.17399,http://www.nhc.noaa.gov/#IRENE,"",Orange,16,2012-07-31 22:27:00,2012-08-30 22:27:00,"",8,f,t
251,UN Nigeria HQ Bombing,"A car bomb hit the UN's headquarters in Abuja, Nigeria. At least 18 people have died. The Boko Haram have claimed responsibility.",9.0355,7.4646,2011-08-26 17:09:00,2011-08-26 17:13:01.271105,2012-07-31 22:28:09.413849,http://www.bbc.co.uk/news/world-africa-14677957,"",Yellow,16,2012-07-31 22:27:00,2012-08-30 22:27:00,"",20,f,t
358,Floods in the Philippines ,"On Tuesday, torrential rains flooded the Philippines capital, Manila. Nine people were found dead buried under a landslide in Quezon City.",14.644075,121.046808,2012-08-08 15:50:00,2012-08-08 16:00:29.294146,2012-08-08 16:00:29.294146,http://www.bbc.co.uk/news/world-asia-19178288,FL-2012-000130-PHL ,Yellow,25,2012-08-08 15:50:00,2012-08-23 15:50:00,"",6,f,t
341,"Waldo Canyon Fire, Colorado","The Waldo Canyon fire, which officials here called ""very aggressive,"" spread in three directions and displaced about 11,000 people from their homes as fires continued to burn statewide Sunday.",38.912096,-104.874187,2012-06-25 15:13:00,2012-06-25 15:17:38.51575,2012-09-20 21:05:27.923253,http://www.denverpost.com/breakingnews/ci_20929068/waldo-canyon-fire-evacuation-manitou-springs,"",Yellow,16,2012-06-25 15:13:00,2012-07-10 15:13:00,"",5,f,t
58,Egypt - Suez Protests,Political,29.962,32.54,2011-01-28 12:00:00,2011-05-24 12:00:00,2011-06-07 19:24:05.486097,,,,,,,,1,f,t
1,Brazil Flooding,Flood,-22.283,-42.533,2011-01-13 12:00:00,2011-05-24 12:00:00,2011-06-07 19:54:06.469509,,,,,,,,1,f,t
411,Flooding in Italy,Two days of heavy rains followed by strong winds have left parts of central and northern Italy submerged.  Rising water levels have caused power cuts and transport disruptions as well as forcing some to flee their homes.,42.763545,11.112343,2012-11-14 20:34:00,2012-11-14 20:45:54.501501,2012-11-14 20:45:54.501501,http://www.bbc.co.uk/news/world-europe-20318043,"",Yellow,16,2012-11-14 20:34:00,2012-11-24 20:34:00,"",6,f,t
376,Floods in Northern Cameroon,"Extreme floods have devastated Northern regions of Cameroon. Nearly 20 people have died and thousands more are left homeless. Continuous rainfall and release of the Ladgo Dam caused the Benoe River to burst its banks, flooding residential areas.",9.060758,13.688664,2012-09-07 17:02:00,2012-09-07 19:22:09.039539,2012-09-07 19:22:09.039539,http://www.un-spider.org/about-us/news/en/6173/2012-09-07t161900/international-charter-activated-floods-cameroon,"",Yellow,16,2012-09-07 17:02:00,2012-10-17 17:02:00,"",6,f,t
359,Earthquake in Iran,"Relief operations are under way in Iran after two strong earthquakes in the north-west left at least 250 people dead and more than 2,000 injured.

",38.257,46.914,2012-08-13 14:07:00,2012-08-13 14:11:50.103601,2012-09-12 23:04:02.124839,http://www.bbc.co.uk/news/world-middle-east-19231118,"",Orange,16,2012-08-13 14:07:00,2012-08-28 14:07:00,"",4,f,t
392,Floods in South Sudan,"Floods which began in June have been affecting the Upper Nile state in South Sudan. The flooding in Sudan has displaced over three thousand people, and at least 15 people have been reported killed.",10.016,33.546,2012-09-24 17:42:00,2012-09-24 17:48:41.422422,2012-09-24 20:35:43.249701,http://www.trust.org/alertnet/news/sudanese-refugees-risk-disease-in-crowded-flooded-camps,"",Yellow,16,2012-09-24 17:42:00,2012-10-04 17:42:00,"",6,f,t
235,Souris-Missouri River Flooding - Sioux City,"Collection AOIs are defined for Minot ND, Sioux City IA, Offutt and Fort Calhoun, NE.",42.486,-96.405,2011-06-29 19:17:00,2011-07-06 19:17:55.45407,2011-07-27 16:29:40.422943,http://www.cnn.com,,,,,,,1,f,t
236,Souris-Missouri River Flooding - Minot,"Collection AOIs are defined for Minot ND, Sioux City IA, Offut and Fort Calhoun, NE.",48.232,-101.296,2011-06-29 19:18:00,2011-07-06 19:18:51.431487,2011-07-06 19:18:51.431487,,,,,,,,1,f,t
50,World Cup 2010 -  Royal Bafokeng,Sports,-25.578,27.1607,2010-06-11 12:00:00,2011-05-24 12:00:00,2012-01-16 17:02:52.532638,"","",Yellow,10,2012-01-16 17:02:00,2012-02-15 17:02:00,"",1,f,t
204,Spain - Lorca,Earthquake,37.671,-1.698,2011-05-11 12:00:00,2011-05-24 12:00:00,2011-06-02 15:06:45.004675,,,,,,,,1,f,t
205,Slave Lake Canada,Fire,55.2806,-114.7705,2011-05-17 12:00:00,2011-05-24 12:00:00,2011-06-02 15:09:33.674385,,,,,,,,1,f,t
184,Southern Storms - Birmingham,Tornado,33.5209,-86.802,2011-04-28 12:00:00,2011-05-24 12:00:00,2011-06-02 15:10:08.640009,,,,,,,,1,f,t
201,Midwest Floods - Norco,Flood,30.028,-90.39,2011-05-04 12:00:00,2011-05-24 12:00:00,2011-06-02 15:10:49.310364,,,,,,,,1,f,t
177,Midwest Floods - Smithland,Flood,37.276,-88.47,2011-05-04 12:00:00,2011-05-24 12:00:00,2011-06-02 15:11:11.704511,,,,,,,,1,f,t
178,Midwest Floods - Mount Vernon,Flood,37.81,-88.008,2011-05-04 12:00:00,2011-05-24 12:00:00,2011-06-02 15:11:35.04385,,,,,,,,1,f,t
179,Midwest Floods - Newburgh,Flood,37.927,-87.375,2011-05-04 12:00:00,2011-05-24 12:00:00,2011-06-02 15:12:01.866512,,,,,,,,1,f,t
168,Midwest Floods - Cape Girardeau,Flood,37.297,-89.471,2011-05-04 12:00:00,2011-05-24 12:00:00,2011-06-02 15:12:22.111255,,,,,,,,1,f,t
180,Midwest Floods - Owensboro,Flood,37.794,-87.141,2011-05-04 12:00:00,2011-05-24 12:00:00,2011-06-02 15:13:07.514299,,,,,,,,1,f,t
175,Midwest Floods - Grand Chain,Flood,37.204,-89.039,2011-05-04 12:00:00,2011-05-24 12:00:00,2011-06-02 15:13:31.413562,,,,,,,,1,f,t
174,Midwest Floods - Natchez,Flood,31.544,-91.448,2011-05-04 12:00:00,2011-05-24 12:00:00,2011-06-02 15:13:57.487259,,,,,,,,1,f,t
173,Midwest Floods - Vicksburg,Flood,32.361,-90.944,2011-05-04 12:00:00,2011-05-24 12:00:00,2011-06-02 15:14:24.350819,,,,,,,,1,f,t
172,Midwest Floods - Greenville,Flood,33.416,-91.164,2011-05-04 12:00:00,2011-05-24 12:00:00,2011-06-02 15:14:48.850934,,,,,,,,1,f,t
171,Midwest Floods - Helena,Flood,34.514,-90.586,2011-05-04 12:00:00,2011-05-24 12:00:00,2011-06-02 15:15:16.379004,,,,,,,,1,f,t
176,Midwest Floods - Paducah,Flood,37.106,-88.624,2011-05-04 12:00:00,2011-05-24 12:00:00,2011-06-02 17:42:54.796122,,,,,,,,1,f,t
360,Fires in North Algeria,"An estimated 20,000 hectares of land have been ravaged by forest fires in the north of Algeria since June. These are a result of hotter than average summer heat waves that have been reported to reach as high as 50 degrees Celsius. ",36.314678,2.308263,2012-08-16 20:06:00,2012-08-16 20:19:50.876113,2012-08-16 20:19:50.876113,http://www.news24.com/Africa/News/Wildfire-ravages-20-000ha-in-Algeria-20120814,"",Orange,16,2012-08-16 20:06:00,2012-08-31 20:06:00,"",5,f,t
377,Earthquakes in Southern China,"Two quakes measuring 5.7 and 5.6 on the Richter scale hit a border area near Yiliang county in Yunnan and Weining county in Guizhou province.  An estimated 100,000 people have been evacuated and approximately 20,000 houses were destroyed.",27.579862,103.990059,2012-09-07 19:30:00,2012-09-07 19:36:24.035573,2012-09-07 19:36:24.035573,http://news.xinhuanet.com/english/china/2012-09/07/c_131835270.htm,"",Orange,16,2012-09-07 19:30:00,2012-10-17 19:30:00,"",4,f,t
208,Massachusetts Tornados - Springfield,Tornado,42.101,-72.5898,2011-06-02 00:00:00,2011-06-03 16:35:57.063492,2011-06-03 16:35:57.063492,,,,,,,,1,f,t
209,Massachusetts Tornados- West Springfield,Tornado,42.107,-72.6206,2011-06-02 00:00:00,2011-06-03 16:37:16.78758,2011-06-03 16:37:16.78758,,,,,,,,1,f,t
210,Massachusetts Tornados - Monson,Tornado,42.1043,-72.318,2011-06-02 00:00:00,2011-06-03 16:38:06.235664,2011-06-03 16:38:06.235664,,,,,,,,1,f,t
211,Massachusetts Tornados - Westfield,Tornado,42.1244,-72.7495,2011-06-02 00:00:00,2011-06-03 16:39:04.620723,2011-06-03 16:39:04.620723,,,,,,,,1,f,t
212,Massachusetts Tornados - Agawam,Tornado,42.0692,-72.6152,2011-06-02 00:00:00,2011-06-03 16:39:59.404998,2011-06-03 16:39:59.404998,,,,,,,,1,f,t
213,Massachusetts Tornados - Charlton,Tornado,42.135,-71.9704,2011-06-02 00:00:00,2011-06-03 16:40:45.748193,2011-06-03 16:40:45.748193,,,,,,,,1,f,t
214,Massachusetts Tornados - Oxford,Tornado,42.1163,-71.865,2011-06-02 00:00:00,2011-06-03 16:41:33.693875,2011-06-03 16:41:33.693875,,,,,,,,1,f,t
215,Massachusetts Tornados - Palmer,Tornado,42.1582,-72.3286,2011-06-02 00:00:00,2011-06-03 16:42:22.933857,2011-06-03 16:42:22.933857,,,,,,,,1,f,t
220,Upper Midwest Flooding - Towner,Flood,48.348,-100.4155,2011-06-03 00:00:00,2011-06-03 16:47:44.541144,2011-06-03 16:47:44.541144,,,,,,,,1,f,t
221,Upper Midwest Flooding - Ashton,Flood,44.997,-98.481,2011-06-03 00:00:00,2011-06-03 16:48:22.986351,2011-06-03 16:48:22.986351,,,,,,,,1,f,t
222,Upper Midwest Flooding - Huron,Flood,44.355,-98.196,2011-06-02 00:00:00,2011-06-03 16:49:02.743887,2011-06-03 16:49:02.743887,,,,,,,,1,f,t
223,Upper Midwest Flooding - Pierre,Flood,44.367,-100.349,2011-06-03 00:00:00,2011-06-03 16:49:44.593447,2011-06-03 16:49:44.593447,,,,,,,,1,f,t
224,Yemen Unrest - Sanaa University,Protests,15.3653,44.1897,2011-06-03 19:34:00,2011-06-03 19:44:52.743407,2011-06-03 19:50:20.619249,,,,,,,,1,f,t
226,Syria Unrest - Ar Rastan,Political Unrest - Armored personal carriers.,34.9438,36.7446,2011-06-03 19:54:00,2011-06-03 19:55:49.612129,2011-06-06 16:36:37.769186,,,,,,,,1,f,t
419,Grounded Shell Oil Rig,"The oil rig ""Kulluk"" ran aground on Monday after drifting in stormy weather as it was being towed.  The rig is grounded on the south-east side of Sitkalidak Island, and does not appear to be leaking at present.",57.312,-153.03,2013-01-15 22:55:00,2013-01-15 22:58:19.122985,2013-01-15 22:58:19.122985,http://www.bbc.co.uk/news/world-us-canada-20887995,"",Yellow,16,2013-01-15 22:55:00,2013-01-26 22:55:00,"",20,f,t
402,Pemex Gas Pipe Explosion,"The blaze in the town of Zapotlanejo was caused by a digger striking the pipeline late on Thursday, and has not yet been brought under control.  The accident injured two firefighters and an employee of the state-owned energy company Pemex.",20.542503,-103.025926,2012-10-19 16:33:00,2012-10-19 16:46:11.96794,2012-10-19 18:03:19.089365,http://www.reuters.com/article/2012/10/19/mexico-pemex-idUSL1E8LJ2GF20121019,"",Yellow,16,2012-10-19 16:33:00,2012-10-29 16:33:00,"",20,f,t
218,Upper Midwest Flooding - Williston,Flood,48.1145,-103.715,2011-06-03 00:00:00,2011-06-03 16:46:14.667295,2011-06-03 16:46:14.667295,,,,,,,,1,f,t
219,Upper Midwest Flooding - Minot,Flood,48.234,-101.299,2011-06-03 00:00:00,2011-06-03 16:47:01.419636,2011-06-03 16:47:01.419636,,,,,,,,1,f,t
228,Pueyhue Volcano Complex,"Eruptions in the Puyehue-Cordon-Caulle volcano range have disrupted air traffic in Chile and Argentina. According to reports, an estimated 4,000 people have left the area.",-40.583,-72.112,2011-06-07 14:53:00,2011-06-07 16:25:11.145615,2011-06-07 16:25:11.145615,,,,,,,,1,f,t
170,Midwest Floods - Osceola,Flood,35.631,-89.923,2011-05-04 12:00:00,2011-05-24 12:00:00,2011-06-07 16:58:41.786123,,,,,,,,1,f,t
203,Midwest Flood - Moganza,Flood,30.741,-90.101,2011-05-04 12:00:00,2011-05-24 12:00:00,2011-06-07 16:59:01.048186,,,,,,,,1,f,t
166,Midwest Floods - Memphis TN,Flood,35.151,-90.049,2011-05-04 12:00:00,2011-05-24 12:00:00,2011-06-07 16:59:31.503242,,,,,,,,1,f,t
167,Midwest Floods - Cairo,Flood,36.796,-89.332,2011-05-04 12:00:00,2011-05-24 12:00:00,2011-06-07 16:59:47.56927,,,,,,,,1,f,t
202,Midwest Flood - Baton Rouge,Flood,30.441,-91.197,2011-05-04 12:00:00,2011-05-24 12:00:00,2011-06-07 17:00:11.896418,,,,,,,,1,f,t
169,Midwest Floods - Dyersburg,Flood,36.196,-89.628,2011-05-04 12:00:00,2011-05-24 12:00:00,2011-06-07 17:00:42.156504,,,,,,,,1,f,t
189,Southern Storms - Oxford,Tornado,34.3609,-89.5293,2011-04-28 12:00:00,2011-05-24 12:00:00,2011-06-07 17:01:00.496708,,,,,,,,1,f,t
188,Southern Storms - Crystal Springs,Tornado,32.0509,-90.378,2011-04-28 12:00:00,2011-05-24 12:00:00,2011-06-07 17:01:18.209962,,,,,,,,1,f,t
185,Southern Storms - Glade Spring,Tornado,36.7795,-81.7752,2011-04-28 12:00:00,2011-05-24 12:00:00,2011-06-07 17:02:08.794518,,,,,,,,1,f,t
190,Osama Compound,Human Interest,34.169,73.242,2011-05-02 12:00:00,2011-05-24 12:00:00,2011-06-07 17:02:46.482345,,,,,,,,1,f,t
159,Syria - Aleppo,Political,36.21,37.1608,2011-04-25 12:00:00,2011-05-24 12:00:00,2011-06-07 17:06:15.035421,,,,,,,,1,f,t
161,Syria - Baniyas,Political,35.179,35.949,2011-04-25 12:00:00,2011-05-24 12:00:00,2011-06-07 17:06:54.68985,,,,,,,,1,f,t
158,Syria - Homs,Political,34.725,36.723,2011-04-25 12:00:00,2011-05-24 12:00:00,2011-06-07 17:07:10.161807,,,,,,,,1,f,t
157,Syria - Daraa,Political,32.62,36.106,2011-04-25 12:00:00,2011-05-24 12:00:00,2011-06-07 17:07:29.440645,,,,,,,,1,f,t
160,Syria - Damascus,Political,33.512,36.2913,2011-04-25 12:00:00,2011-05-24 12:00:00,2011-06-07 17:07:49.238363,,,,,,,,1,f,t
156,Mossy Rock Ranch Texas,Fire,32.776,-98.532,2011-04-20 12:00:00,2011-05-24 12:00:00,2011-06-07 17:08:08.389839,,,,,,,,1,f,t
147,NC - Askewville,Tornado,36.143,-76.893,2011-04-18 12:00:00,2011-05-24 12:00:00,2011-06-07 17:08:54.10709,,,,,,,,1,f,t
144,NC - Sanford,Tornado,35.467,-79.155,2011-04-18 12:00:00,2011-05-24 12:00:00,2011-06-07 17:09:14.309961,,,,,,,,1,f,t
148,NC - Fayetteville,Tornado,35.052,-78.877,2011-04-18 12:00:00,2011-05-24 12:00:00,2011-06-07 17:09:43.179547,,,,,,,,1,f,t
155,Nigeria - Sokoto,Political,13.031,5.2309,2011-04-18 12:00:00,2011-05-24 12:00:00,2011-06-07 17:11:52.389162,,,,,,,,1,f,t
152,Nigeria - Gombe,Political,10.282,11.1746,2011-04-18 12:00:00,2011-05-24 12:00:00,2011-06-07 17:12:06.600104,,,,,,,,1,f,t
143,NC - Raleigh,Tornado,35.754,-78.701,2011-04-18 12:00:00,2011-05-24 12:00:00,2011-06-07 17:12:24.046119,,,,,,,,1,f,t
149,Nigeria - Kano,Political,11.991,8.525,2011-04-18 12:00:00,2011-05-24 12:00:00,2011-06-07 17:12:37.034668,,,,,,,,1,f,t
151,Nigeria - Jos,Political,9.924,8.8929,2011-04-18 12:00:00,2011-05-24 12:00:00,2011-06-07 17:12:51.265063,,,,,,,,1,f,t
154,Nigeria - Katsina,Political,12.985,7.623,2011-04-18 12:00:00,2011-05-24 12:00:00,2011-06-07 17:13:03.917924,,,,,,,,1,f,t
150,Nigeria - Kaduna,Political,10.541,7.425,2011-04-18 12:00:00,2011-05-24 12:00:00,2011-06-07 17:13:17.338152,,,,,,,,1,f,t
153,Nigeria - Adamawa,Political,9.285,12.442,2011-04-18 12:00:00,2011-05-24 12:00:00,2011-06-07 17:15:26.3651,,,,,,,,1,f,t
145,NC - Colerain,Tornado,36.201,-76.767,2011-04-18 12:00:00,2011-05-24 12:00:00,2011-06-07 17:15:42.274847,,,,,,,,1,f,t
197,Libya - Hun,Political,29.1109,15.963,2011-04-13 12:00:00,2011-05-24 12:00:00,2011-06-07 17:15:58.344238,,,,,,,,1,f,t
192,Libya - Yafran,Political,32.0621,12.526,2011-04-13 12:00:00,2011-05-24 12:00:00,2011-06-07 17:16:10.364025,,,,,,,,1,f,t
191,Libya - Misurata,Political,32.373,15.0933,2011-04-13 12:00:00,2011-05-24 12:00:00,2011-06-07 17:16:21.722744,,,,,,,,1,f,t
142,Coahuila Mexico,Fire,28.877,-102.192,2011-04-13 12:00:00,2011-05-24 12:00:00,2011-06-07 17:16:47.144786,,,,,,,,1,f,t
193,Libya - Bani Walid,Political,31.738,13.955,2011-04-13 12:00:00,2011-05-24 12:00:00,2011-06-07 17:16:59.16257,,,,,,,,1,f,t
194,Libya - Eastern Border,Political,31.5775,25.0739,2011-04-13 12:00:00,2011-05-24 12:00:00,2011-06-07 17:17:13.550643,,,,,,,,1,f,t
195,Libya - El Bayda,Political,32.763,21.7406,2011-04-13 12:00:00,2011-05-24 12:00:00,2011-06-07 17:18:16.335127,,,,,,,,1,f,t
199,Libya - Tamanhint,Political,27.216,14.632,2011-04-13 12:00:00,2011-05-24 12:00:00,2011-06-07 17:18:29.75398,,,,,,,,1,f,t
196,Libya - Garyan,Political,32.1672,13.0164,2011-04-13 12:00:00,2011-05-24 12:00:00,2011-06-07 17:18:41.885333,,,,,,,,1,f,t
200,Libya - Waddan,Political,29.14,16.1602,2011-04-13 12:00:00,2011-05-24 12:00:00,2011-06-07 17:18:54.537051,,,,,,,,1,f,t
198,Libya - Sawknah,Political,29.0668,15.7843,2011-04-13 12:00:00,2011-05-24 12:00:00,2011-06-07 17:19:10.281706,,,,,,,,1,f,t
141,Mapleton IA,Tornado,42.163,-95.789,2011-04-11 12:00:00,2011-05-24 12:00:00,2011-06-07 17:19:23.086273,,,,,,,,1,f,t
140,Fort Davis TX,Fire,30.576,-103.874,2011-04-11 12:00:00,2011-05-24 12:00:00,2011-06-07 17:19:40.492711,,,,,,,,1,f,t
139,Crystal Fire,Fire,40.557,-105.304,2011-04-06 12:00:00,2011-05-24 12:00:00,2011-06-07 17:20:23.521394,,,,,,,,1,f,t
122,"Owambo, Namibia",Flood,-17.859,15.779,2011-04-04 12:00:00,2011-05-24 12:00:00,2011-06-07 17:20:44.212559,,,,,,,,1,f,t
420,In Amenas Hostage Crisis,Heavily armed gunmen attacked the In Amenas gas field complex in Algeria. Militants took Algerian and foreign workers hostage in the living area and the main gas facility of the Tiguentourine complex.,27.925807,9.112788,2013-01-18 23:03:00,2013-01-18 23:13:51.207694,2013-01-18 23:17:14.81827,http://www.bbc.co.uk/news/world-africa-21085590,"",Yellow,16,2013-01-18 23:03:00,2013-01-28 23:03:00,"",19,f,t
368,"Oil Refinery Fire, Venezuela","Venezuelan firefighters struggled to contain the last fire at the South American country’s largest oil refinery after a second flare-up at a fuel storage tank. 

",11.741916,-70.184398,2012-08-28 17:03:00,2012-08-28 17:08:44.450684,2012-08-28 17:08:44.450684,http://www.businessweek.com/news/2012-08-27/venezuelan-refinery-fire-spreads-and-delays-production-restart,"",Orange,5,2012-08-28 17:03:00,2012-09-07 17:03:00,"",20,f,t
353,Formula One - Hungarian GP,"McLaren's Lewis Hamilton took his second victory of the season as he beat Lotus driver Kimi Raikkonen in the Hungarian Grand Prix. 

",47.580637,19.249592,2012-07-30 16:09:00,2012-07-30 16:13:35.193887,2012-07-31 17:39:16.428262,http://www.bbc.co.uk/sport/0/formula1/19037485,"",Yellow,16,2012-07-30 16:09:00,2012-08-09 16:09:00,"",18,f,t
440,"Sectarian Violence in Meiktila, Myanmar","Three days of rioting and arson attacks have swept through the streets
of Meiktila. Security forces, which during decades of military rule
brutally suppressed any signs of unrest, seemed unable or unwilling to
stop the rioting.",20.884229,95.863984,2013-03-27 16:55:00,2013-03-27 17:03:40.490422,2013-03-27 17:03:40.490422,http://www.nytimes.com/2013/03/23/world/asia/toll-rises-as-sectarian-violence-in-myanmar-spreads.html?hp,"",Yellow,10,2013-03-22 16:55:00,2013-04-01 16:55:00,"",15,f,t
287,Christmas Island - Vessel breaks in two,Rough weather on Christmas Island has broken the MV Tycoon in two.,-10.4258,105.671,2012-01-12 17:27:00,2012-01-12 17:33:21.333403,2012-07-31 19:06:58.551822,http://gcaptain.com/grounded-vessel-christmas-island/?37137,"",Yellow,16,2012-01-12 17:27:00,2012-02-11 17:27:00,"",11,f,t
129,Red and James Rivers - Grand Forks,Flood,47.899,-97.0303,2011-03-28 12:00:00,2011-05-24 12:00:00,2011-06-07 17:21:12.305123,,,,,,,,1,f,t
135,Red and James Rivers - Huron,Flood,44.303,-98.185,2011-03-28 12:00:00,2011-05-24 12:00:00,2011-06-07 17:21:38.24187,,,,,,,,1,f,t
130,Red and James Rivers - Fargo,Flood,46.848,-96.831,2011-03-28 12:00:00,2011-05-24 12:00:00,2011-06-07 17:22:03.01979,,,,,,,,1,f,t
131,Red and James Rivers - Watertown,Flood,44.903,-97.099,2011-03-28 12:00:00,2011-05-24 12:00:00,2011-06-07 17:22:52.35176,,,,,,,,1,f,t
133,Red and James Rivers - Dell Rapids,Flood,43.814,-96.696,2011-03-28 12:00:00,2011-05-24 12:00:00,2011-06-07 17:23:16.128544,,,,,,,,1,f,t
182,Southern Storms - Smithville,Tornado,34.0699,-88.391,2011-04-28 12:00:00,2011-05-24 12:00:00,2011-06-07 17:03:11.623315,,,,,,,,1,f,t
187,Southern Storms - Leoma,Tornado,35.1415,-87.3448,2011-04-28 12:00:00,2011-05-24 12:00:00,2011-06-07 17:03:30.048603,,,,,,,,1,f,t
186,Southern Storms - Ringgold,Tornado,34.9166,-85.1109,2011-04-28 12:00:00,2011-05-24 12:00:00,2011-06-07 17:03:50.417498,,,,,,,,1,f,t
165,Midwest Floods - Poplar Bluff AR,Flood,36.3751,-90.398,2011-04-26 12:00:00,2011-05-24 12:00:00,2011-06-07 17:04:04.925586,,,,,,,,1,f,t
164,Midwest Storms - Vilonia AR,Tornado,35.083,-92.208,2011-04-26 12:00:00,2011-05-24 12:00:00,2011-06-07 17:04:20.559903,,,,,,,,1,f,t
163,Midwest Storms - St. Louis MO,Tornado,38.75,-90.411,2011-04-26 12:00:00,2011-05-24 12:00:00,2011-06-07 17:05:44.395575,,,,,,,,1,f,t
162,Syria - Ar Rastan,Political,34.923,36.734,2011-04-25 12:00:00,2011-05-24 12:00:00,2011-06-07 17:06:38.015618,,,,,,,,1,f,t
239,California fire - Lion,"The Lion fire in the Sequoia National Forest has grown to 11,411 acres.",36.316,-118.544,2011-07-27 16:25:00,2011-07-27 16:30:18.995665,2011-07-29 17:55:37.094618,http://www.turnto23.com/news/28671677/detail.html,,,,,,,1,f,t
240,California fire - Eagle,"The Eagle fire, 85km ENE of San Diego on the Los Coyotes Indian Reservation has grown to 13,700 and is now 45% contained.",33.313,-116.48,2011-07-27 16:30:00,2011-07-27 16:33:00.283592,2011-07-29 17:55:52.830192,"http://www.fox5sandiego.com/news/kswb-eagle-fire-latest,0,7044550.story",,,,,,,1,f,t
137,Red and James Rivers - Menno,Flood,43.168,-97.618,2011-03-28 12:00:00,2011-05-24 12:00:00,2011-06-07 17:23:29.038041,,,,,,,,1,f,t
136,Red and James Rivers - Mitchell,Flood,43.754,-97.984,2011-03-28 12:00:00,2011-05-24 12:00:00,2011-06-07 17:23:46.577611,,,,,,,,1,f,t
132,Red and James Rivers - Brookings,Flood,44.304,-96.849,2011-03-28 12:00:00,2011-05-24 12:00:00,2011-06-07 17:25:47.668581,,,,,,,,1,f,t
134,Red and James Rivers - Redfield,Flood,44.958,-98.483,2011-03-28 12:00:00,2011-05-24 12:00:00,2011-06-07 17:26:11.037264,,,,,,,,1,f,t
128,Shan State Myanmar,Earthquake,20.705,99.947,2011-03-24 12:00:00,2011-05-24 12:00:00,2011-06-07 17:26:23.627275,,,,,,,,1,f,t
82,Christchurch Earthquake,Earthquake,-43.529,172.661,2011-03-22 12:00:00,2011-05-24 12:00:00,2011-06-07 17:26:40.425139,,,,,,,,1,f,t
127,Indian Gulch Fire,Fire,39.755,-105.267,2011-03-23 12:00:00,2011-05-24 12:00:00,2011-06-07 17:26:53.539015,,,,,,,,1,f,t
123,Yemen - Sanaa,Political,15.375,44.206,2011-03-18 12:00:00,2011-05-24 12:00:00,2011-06-07 17:27:26.177487,,,,,,,,1,f,t
124,Yemen - Taiz,Political,13.569,44.013,2011-03-18 12:00:00,2011-05-24 12:00:00,2011-06-07 17:27:39.432076,,,,,,,,1,f,t
126,Yemen - Al Mukalla,Political,14.565,49.1533,2011-03-18 12:00:00,2011-05-24 12:00:00,2011-06-07 17:27:50.232524,,,,,,,,1,f,t
125,Yemen - Aden,Political,12.818,45.006,2011-03-18 12:00:00,2011-05-24 12:00:00,2011-06-07 17:28:05.890756,,,,,,,,1,f,t
94,California - Santa Cruz,Tsunami,36.9608,-122.0205,2011-03-14 12:00:00,2011-05-24 12:00:00,2011-06-07 17:28:19.757519,,,,,,,,1,f,t
93,California - Crescent City,Tsunami,41.756,-124.201,2011-03-14 12:00:00,2011-05-24 12:00:00,2011-06-07 17:28:39.334387,,,,,,,,1,f,t
117,Japan - Ichihara,Earthquake,35.497,140.0489,2011-03-11 12:00:00,2011-05-24 12:00:00,2011-06-07 17:29:37.234209,,,,,,,,1,f,t
118,Japan - Chiba,Earthquake,35.6132,140.1046,2011-03-11 12:00:00,2011-05-24 12:00:00,2011-06-07 17:29:57.984368,,,,,,,,1,f,t
119,Japan - Edogawa,Earthquake,35.7071,139.868,2011-03-11 12:00:00,2011-05-24 12:00:00,2011-06-07 17:30:31.326816,,,,,,,,1,f,t
120,Japan - Tokyo,Earthquake,35.692,139.702,2011-03-11 12:00:00,2011-05-24 12:00:00,2011-06-07 17:30:49.8136,,,,,,,,1,f,t
121,Japan - Tokyo Haneda Intl,Earthquake,35.557,139.767,2011-03-11 12:00:00,2011-05-24 12:00:00,2011-06-07 17:31:12.854366,,,,,,,,1,f,t
87,Hawaii - Haleiwa,Tsunami,21.576,-158.1198,2011-03-11 12:00:00,2011-05-24 12:00:00,2011-06-07 17:31:30.337672,,,,,,,,1,f,t
113,Japan - Tokai,Earthquake,36.4666,140.607,2011-03-11 12:00:00,2011-05-24 12:00:00,2011-06-07 17:32:52.375727,,,,,,,,1,f,t
114,Japan - Kamisu,Earthquake,35.9206,140.677,2011-03-11 12:00:00,2011-05-24 12:00:00,2011-06-07 17:33:31.277234,,,,,,,,1,f,t
116,Japan - Tagajo,Earthquake,38.293,141.004,2011-03-11 12:00:00,2011-05-24 12:00:00,2011-06-07 17:35:12.991286,,,,,,,,1,f,t
429,"Solomon Islands, Earthquake and Tsunami","A powerful earthquake off the Solomon Islands generated a tsunami up to 1.5 metres (5ft) high that damaged dozens of homes and left several people missing, presumed dead.",-10.724579,165.798509,2013-02-07 21:22:00,2013-02-07 21:27:15.73324,2013-02-11 20:01:22.43657,http://www.guardian.co.uk/world/2013/feb/06/solomon-islands-earthquake-triggers-tsunami,TS-2013-000015-SLB,Yellow,16,2013-02-07 21:22:00,2013-02-17 21:22:00,"",14,f,t
441,Flooding in Yemen,"Flooding in Yemen has led to 19 reported deaths, said the Yemeni Meteorology Center on Sunday. The Yemeni meteorology center warned of more heavy rains to come, especially in mountainous regions including Sana'a, Amran, Mahweet, Dhamar and Raima.",15.351582,44.207319,2013-04-02 21:19:00,2013-04-02 21:29:09.042382,2013-04-02 21:41:36.631144,http://www.yementimes.com/en/1664/news/2174/Flooding-continues-death-toll-rises.htm,"",Yellow,16,2013-04-02 21:19:00,2013-05-01 21:19:00,"",6,t,t
442,"Severe Flooding in Buenos Aires, Argentina","More than 50 people have died after one of the heaviest storms recorded caused flash floods in Buenos Aires and La Plata. Thousands have been evacuated from their homes and dozens are still stranded, local media report.",-34.603811,-58.381599,2013-04-04 15:52:00,2013-04-04 16:09:25.547926,2013-04-04 16:15:10.511142,http://www.bbc.co.uk/news/world-latin-america-22023196,"",Yellow,16,2013-04-04 15:52:00,2013-05-04 15:52:00,"",6,f,t
443,"Red River Flooding in Upper Midwest, USA","A potential for exceeding moderate and major river flood levels exists for the Red River of the North, which forms the state line between eastern North Dakota and northwest Minnesota for spring 2013.",46.875492,-96.790645,2013-04-04 22:28:00,2013-04-04 22:34:46.975643,2013-04-04 22:34:46.975643,http://minnesota.publicradio.org/display/web/2013/04/03/news/fargo-sandbags-red-river-flooding,"",Yellow,16,2013-04-04 22:28:00,2013-05-04 22:28:00,"",6,t,t
444,Earthquake in Iran,"A 6.3 magnitude earthquake has killed at least 37 people and injured 850 in south-west Iran, officials say.",28.454,51.494,2013-04-09 16:49:00,2013-04-09 16:52:40.183911,2013-04-09 16:52:40.183911,http://www.bbc.co.uk/news/world-middle-east-22077834,"",Yellow,50,2013-04-09 16:49:00,2013-05-09 16:49:00,"",4,f,t
431,"Chelyabinsk Meteor Strike, Russia","A meteor crashing in Russia's Ural mountains has injured at least 950
people, as the shock-wave blew out windows and rocked buildings.
",55.1606,61.426,2013-02-15 16:37:00,2013-02-19 16:40:37.800393,2013-02-20 23:30:22.730108,http://www.bbc.co.uk/news/world-europe-21468116,"",Yellow,16,2013-02-15 16:37:00,2013-03-30 16:37:00,"",17,f,t
445,Tornadoes in Arkansas and Missouri,"Tornadoes spread mayhem in parts of Missouri and Arkansas, and now it's time for the Southeast to brace itself for possible severe weather.
",35.699,-92.517,2013-04-11 16:31:00,2013-04-11 16:38:21.42449,2013-04-11 16:40:07.887316,http://www.cnn.com/2013/04/11/us/storms/index.html?hpt=hp_t2,"",Yellow,16,2013-04-11 16:31:00,2013-05-21 16:31:00,"",13,f,t
432,"Cyclone Haruna, Madagascar","Tropical Cyclone Haruna made landfall on the south-west coast of Madagascar. Government officials have reported over 17,000 people have been affected by the storm, with 13 reported deaths, and 1,500 houses destroyed or flooded.",-23.373313,43.678041,2013-02-25 17:19:00,2013-02-25 17:35:35.802358,2013-02-28 16:27:38.144766,http://www.irinnews.org/Report/97542/Tropical-Cyclone-Haruna-hits-southwestern-Madagascar,TC-2013-000022-MDG,Orange,16,2013-02-25 17:19:00,2013-03-07 17:19:00,"",8,f,t
433,"Tropical Cyclone Rusty, Australia","Major flooding is expected as Tropical Cyclone Rusty moves inland from Western Australia's Pilbara coast and puts new towns on red alert. People in adjacent inland areas, including Marble Bar, were warned to go to shelter immediately.",-20.317048,118.592069,2013-02-27 18:38:00,2013-02-27 19:13:22.890187,2013-02-27 19:13:22.890187,http://www.news.com.au/breaking-news/national/rusty-rolls-inland-prompting-flood-fears/story-e6frfku9-1226587293521,"",Orange,16,2013-02-27 18:38:00,2013-03-09 18:38:00,"",8,f,t
446,Earthquake in South Eastern Iran,"A powerful earthquake has hit the border regions between Iran and Pakistan. The USGS measured the earthquake at magnitude 7.8, located 50 miles east-south-east of the town of Khash. It is the biggest earthquake in Iran for 40 years.",28.225291,61.208161,2013-04-16 15:02:00,2013-04-16 15:17:29.640285,2013-04-16 15:17:29.640285,http://www.guardian.co.uk/world/2013/apr/16/earthquake-hits-iran-pakistan-border,"",Orange,16,2013-04-16 15:02:00,2013-04-26 15:02:00,"",4,f,t
447,Boston Marathon Bombing,"Two powerful bombs exploded near the finish line of the Boston Marathon on Monday afternoon, killing three people, including an 8-year-old child, and injuring over 100 people.",42.3495,-71.0795,2013-04-16 18:41:00,2013-04-16 18:49:15.010967,2013-04-16 18:52:04.585933,http://www.nytimes.com/2013/04/16/us/explosions-reported-at-site-of-boston-marathon.html?src=ISMR_AP_LO_MST_FB,"",Orange,16,2013-04-16 18:41:00,2013-05-16 18:41:00,"",20,f,t
373,Flooding in Nigeria,"Flooding in two areas of northern Nigeria has killed at least 11 people and displaced hundreds, officials and residents said Friday, the latest casualties in the country's rainy season.
",9.284855,12.460325,2012-08-29 15:16:00,2012-08-29 15:22:56.056568,2012-08-29 15:22:56.056568,http://allafrica.com/stories/201208280169.html,"",Yellow,16,2012-08-29 15:16:00,2012-09-08 15:16:00,"",6,f,t
112,Japan - Onagawa,Tsunami,38.401,141.5,2011-03-11 12:00:00,2011-05-24 12:00:00,2011-06-07 17:35:46.329026,,,,,,,,1,f,t
106,Japan - Natori-City,Tsunami,38.1709,140.891,2011-03-11 12:00:00,2011-05-24 12:00:00,2011-06-07 17:36:06.676927,,,,,,,,1,f,t
434,"Earthquake in Yunnan Province, China","A shallow 5.5-magnitude earthquake hit southwest China on Sunday, causing 700 homes to collapse and leaving 30 people injured, state media said.",25.918,99.725,2013-03-04 19:35:00,2013-03-04 19:44:16.59584,2013-03-04 19:44:16.59584,http://www.bangkokpost.com/breakingnews/338623/china-quake-flattens-hundreds-of-homes,"",Yellow,25,2013-03-04 19:35:00,2013-03-15 19:35:00,"",4,f,t
448,Explosion in West Texas,A massive explosion at a fertilizer plant in the town of West Texas has left up to 15 people dead and more than 150 people injured. The blast registered as a 2.1 earthquake according to federal seismologists.,31.816011,-97.087942,2013-04-18 15:57:00,2013-04-18 16:04:13.125799,2013-04-18 16:06:06.373816,http://online.wsj.com/article/SB10001424127887324493704578429943017835664.html,"",Yellow,16,2013-04-18 15:57:00,2013-04-28 15:57:00,"",20,f,t
449,Earthquake in China,"A powerful earthquake has killed at least 160 people and injured at least 5,700 in China's rural south-west, officials say.
",30.276949,102.954387,2013-04-22 14:36:00,2013-04-22 14:36:33.625584,2013-04-22 14:36:33.625584,http://www.bbc.co.uk/news/world-22228225,"",Orange,50,2013-04-22 14:36:00,2013-05-22 14:36:00,"",4,f,t
146,NC - Micro,Tornado,35.563,-78.204,2011-04-18 12:00:00,2011-05-24 12:00:00,2011-06-07 17:08:29.23546,,,,,,,,1,f,t
450,"Building Collapse in Dhaka, Bangladesh","At least 87 people have been killed and many others trapped after an eight-storey building housing garment factories collapsed outside the capital, Dhaka.",23.84617,90.25782,2013-04-25 15:16:00,2013-04-25 15:22:55.381524,2013-04-25 15:22:55.381524,http://www.bbc.co.uk/news/world-asia-22275597,"",Yellow,16,2013-04-25 15:16:00,2013-05-05 15:16:00,"",20,f,t
451,Canada-Red River Flooding,A potential for exceeding moderate and major river flood levels exists for the Red River of the North.,48.972159,-97.236618,2013-05-02 20:03:00,2013-05-02 20:14:35.839554,2013-05-02 20:29:05.7054,"","",Yellow,16,2013-05-02 20:03:00,2013-06-05 20:03:00,"",6,t,t
64,Libya - Ras Ajdir,Political,33.145,11.559,2011-02-21 12:00:00,2011-05-24 12:00:00,2011-06-07 19:17:40.031805,,,,,,,,1,f,t
53,Guatemala Flooding and Volcano,Flood,14.5901,-90.536,2010-06-01 12:00:00,2011-05-24 12:00:00,2011-06-07 20:07:14.311725,,,,,,,,1,f,t
107,Japan - Arahama,Tsunami,38.2247,140.9807,2011-03-11 12:00:00,2011-05-24 12:00:00,2011-06-07 17:36:44.827489,,,,,,,,1,f,t
111,Japan - Fukushima-Daini,Tsunami,37.3167,141.025,2011-03-11 12:00:00,2011-05-24 12:00:00,2011-06-07 17:37:05.696974,,,,,,,,1,f,t
108,Japan - Soma-City,Earthquake,37.7994,140.9237,2011-03-11 12:00:00,2011-05-24 12:00:00,2011-06-07 17:37:42.701479,,,,,,,,1,f,t
109,Japan - Minami-Soma-City,Tsunami,37.642,140.956,2011-03-11 12:00:00,2011-05-24 12:00:00,2011-06-07 17:38:09.212537,,,,,,,,1,f,t
110,Japan - Fukushima-Daiichi,Tsunami,37.4205,141.0327,2011-03-11 12:00:00,2011-05-24 12:00:00,2011-06-07 17:39:04.741637,,,,,,,,1,f,t
92,Hawaii - Nawiliwili,Tsunami,21.973,-159.353,2011-03-11 12:00:00,2011-05-24 12:00:00,2011-06-07 17:39:21.817472,,,,,,,,1,f,t
91,Hawaii - Lihue,Tsunami,22.0205,-159.367,2011-03-11 12:00:00,2011-05-24 12:00:00,2011-06-07 17:39:35.9725,,,,,,,,1,f,t
88,Hawaii - Honolulu,Tsunami,21.294,-157.9309,2011-03-11 12:00:00,2011-05-24 12:00:00,2011-06-07 17:41:33.473053,,,,,,,,1,f,t
86,Hawaii - Kahului,Tsunami,20.906,-156.4704,2011-03-11 12:00:00,2011-05-24 12:00:00,2011-06-07 17:41:55.508679,,,,,,,,1,f,t
97,Japan - Tanohata-Cho,Earthquake,39.926,141.898,2011-03-11 12:00:00,2011-05-24 12:00:00,2011-06-07 18:41:34.024301,,,,,,,,1,f,t
104,Japan - Ofunato-City,Tsunami,39.0837,141.7106,2011-03-11 12:00:00,2011-05-24 12:00:00,2011-06-07 18:43:10.514344,,,,,,,,1,f,t
96,Japan - Noda-Mural,Earthquake,40.1103,141.8172,2011-03-11 12:00:00,2011-05-24 12:00:00,2011-06-07 18:43:48.713161,,,,,,,,1,f,t
95,Japan - Hachinohe-City,Tsunami,40.5122,141.489,2011-03-11 12:00:00,2011-05-24 12:00:00,2011-06-07 18:44:27.487184,,,,,,,,1,f,t
102,Japan - Kamaishi-City,Tsunami,39.261,141.8898,2011-03-11 12:00:00,2011-05-24 12:00:00,2011-06-07 18:44:59.160367,,,,,,,,1,f,t
101,Japan - Otsuchi-Cho,Tsunami,39.361,141.907,2011-03-11 12:00:00,2011-05-24 12:00:00,2011-06-07 18:46:13.743285,,,,,,,,1,f,t
100,Japan - Yamada-Cho,Tsunami,39.461,141.953,2011-03-11 12:00:00,2011-05-24 12:00:00,2011-06-07 18:46:42.271122,,,,,,,,1,f,t
105,Japan - Minami-Sanriku-Cho,Tsunami,38.679,141.4467,2011-03-11 12:00:00,2011-05-24 12:00:00,2011-06-07 18:57:57.945199,,,,,,,,1,f,t
103,Japan - Rikuzen-Takada-City,Tsunami,39.0145,141.6295,2011-03-11 12:00:00,2011-05-24 12:00:00,2011-06-07 19:09:19.160626,,,,,,,,1,f,t
83,Ivory Coast - Abidjan,Political,5.3203,-4.015,2011-03-08 12:00:00,2011-05-24 12:00:00,2011-06-07 19:10:26.253009,,,,,,,,1,f,t
85,Ivory Coast - Port Bouet,Political,5.259,-3.925,2011-03-11 12:00:00,2011-05-24 12:00:00,2011-06-07 19:10:54.842647,,,,,,,,1,f,t
84,Ivory Coast - Abobo,Political,5.4201,-4.019,2011-03-08 12:00:00,2011-05-24 12:00:00,2011-06-07 19:11:11.820338,,,,,,,,1,f,t
89,Hawaii - Kawaihae,Tsunami,21.283,-157.711,2011-03-11 12:00:00,2011-05-24 12:00:00,2011-06-07 19:11:31.886415,,,,,,,,1,f,t
138,Abidjan Ivory Coast,Political,5.319,-4.022,2011-03-08 12:00:00,2011-05-24 12:00:00,2011-06-07 19:11:55.223285,,,,,,,,1,f,t
90,Hawaii - Waianae,Tsunami,21.4428,-158.1842,2011-03-11 12:00:00,2011-05-24 12:00:00,2011-06-07 19:12:51.521949,,,,,,,,1,f,t
76,Libya - Benina Intl,Political,32.098,20.2702,2011-02-21 12:00:00,2011-05-24 12:00:00,2011-06-07 19:13:46.000613,,,,,,,,1,f,t
77,Libya - Albayda,Political,32.761,21.762,2011-02-21 12:00:00,2011-05-24 12:00:00,2011-06-07 19:13:58.827911,,,,,,,,1,f,t
69,Libya - Bin Jawwad,Political,30.805,18.078,2011-02-21 12:00:00,2011-05-24 12:00:00,2011-06-07 19:14:12.979308,,,,,,,,1,f,t
98,Japan - Iwaizumi-Cho,Earthquake,39.845,141.961,2011-03-11 12:00:00,2011-05-24 12:00:00,2011-06-07 19:15:03.329079,,,,,,,,1,f,t
99,Japan - Miyako-City,Tsunami,39.6403,141.954,2011-03-11 12:00:00,2011-05-24 12:00:00,2011-06-07 19:15:36.689339,,,,,,,,1,f,t
115,Japan - Sendai,Tsunami,38.267,140.869,2011-03-11 12:00:00,2011-05-24 12:00:00,2011-06-07 19:16:21.100185,,,,,,,,1,f,t
70,Libya - As Sidr,Political,30.621,18.308,2011-02-21 12:00:00,2011-05-24 12:00:00,2011-06-07 19:16:47.397908,,,,,,,,1,f,t
